,DNR_ID_Site_Number,Year,Mean(log_phosphorus),Std Dev(log_phosphorus),Mean(Secchi_Depth_RESULT),Std Dev(Secchi_Depth_RESULT),rec_1,rec_2,rec_3,rec_4,rec_5,seasonal_1,seasonal_2,seasonal_3,seasonal_4,seasonal_5,physical_1,physical_2,physical_3,physical_4,physical_5,LAKE_NAME,MAJOR_WATERSHED,longitude,latitude,num.rec.readings,num.physical.readings,rec.avg,physical.avg,seasonal.grade,LakeSite,Number Properties,Mean(ACRES_POLY),Std Dev(ACRES_POLY),N(Ag Preserve - Yes),N(Basement - Yes),Median(EMV_TOTAL),Interquartile Range(EMV_TOTAL),Median(FIN_SQ_FT),Interquartile Range(FIN_SQ_FT),N(Green ACRE - Yes),N(Homestead - Partial),N(Homestead - Yes),N(Single Unit),N(Multiple Unit),Median(SALE_VALUE),Interquartile Range(SALE_VALUE),Median(TOTAL_TAX),Interquartile Range(TOTAL_TAX),N(Sales that year),N(Built that year)
24,02000900-01,2013,-2.385002498,0.8274058470000001,0.8,0.81291656,2,1,2,2,0,0,1,0,0,0,2,0,3,1,1,Reshanau Lake,Mississippi River - Twin Cities,-93.09866122,45.15292958,7,7,2.5714285709999998,2.857142857,D,Reshanau Lake-1,814,0.850491401,2.505783766,0,0,221200,160800.0,1392.0,1047.0,0,0,628,0,0,293000.0,174100.0,3806.0,2412.5,24,0
500,19003700-01,2013,-3.201145773,0.508812131,1.357142857,0.631419414,4,2,1,0,0,0,0,1,0,0,2,2,3,0,0,Simley Lake,Mississippi River - Twin Cities,-93.04268875,44.83258423,7,7,1.571428571,2.142857143,C,Simley Lake-1,380,0.908222222,2.867226648,0,0,184700,149500.0,1799.0,996.0,0,0,322,331,4,156055.0,155100.0,2249.0,2166.0,14,0
1079,82001502-01,2011,-2.63108916,,1.0,0.454606057,0,1,2,1,0,0,0,0,0,0,1,1,1,1,0,Loon Lake,Lower St. Croix River,-92.83720049,45.1141432,4,4,3.0,2.5,F,Loon Lake-1,42,11.16857143,12.15508296,0,0,429300,89250.0,1874.0,870.5,0,0,36,36,0,360000.0,444750.0,,,0,0
499,19003700-01,2012,-3.211773748,0.45996210600000004,1.571428571,0.705842961,4,1,0,2,0,0,0,1,0,0,4,0,1,2,0,Simley Lake,Mississippi River - Twin Cities,-93.04268875,44.83258423,7,7,2.0,2.142857143,C,Simley Lake-1,380,0.908222222,2.867226648,0,0,181000,138150.0,1756.0,1001.5,0,0,318,326,2,153000.0,146200.0,2362.0,2200.0,2,0
705,27008600-02,2005,-2.9995525819999997,0.268659531,1.216666667,0.132000918,0,0,4,5,4,0,0,1,0,0,0,0,6,1,6,Shavers Lake,Mississippi River - Twin Cities,-93.51140917,44.90799877,13,13,4.0,4.0,C,Shavers Lake-1,50,,,0,0,498000,341000.0,0.0,0.0,0,0,46,0,0,375000.0,265000.0,5655.5,3750.25,0,0
982,70009100-01,2010,-1.8578992719999998,,0.56,,0,0,0,1,0,0,0,0,0,0,0,0,0,1,0,Cedar Lake,Lower Minnesota River,-93.52228564,44.595820700000004,1,1,4.0,4.0,F,Cedar Lake-1,479,1.418789144,3.2986175939999995,0,0,312100,262100.0,1072.0,1570.0,0,0,265,0,0,198000.0,275000.0,,,18,0
1440,82010600-01,2007,-4.393500836,0.48307687899999996,3.7,0.855862138,9,0,0,0,0,0,0,0,0,1,9,0,0,0,0,Elmo Lake,Lower St. Croix River,-92.88418587,44.98314906,9,9,1.0,1.0,A,Elmo Lake-1,64,,,0,0,368250,330050.0,0.0,0.0,0,62,0,0,0,118500.0,305375.0,,,0,0
394,19002300-01,2007,-1.828574897,0.5120974770000001,0.5115384620000001,0.192736701,0,1,4,8,0,1,0,0,0,0,0,1,4,7,1,Farquar Lake,Mississippi River - Lake Pepin,-93.1646402,44.75863717,13,13,3.5384615389999996,3.615384615,F,Farquar Lake-1,314,0.7408571429999999,1.189660043,0,0,259750,170900.0,2440.0,1302.0,0,4,286,288,0,193000.0,116750.0,2776.0,1930.5,8,0
126,10001000-01,2005,-3.36411189,0.45833797299999995,2.251818182,0.8171513709999999,10,0,1,0,0,0,0,1,0,0,4,1,4,2,0,Tamarack Lake,Mississippi River - Twin Cities,-93.63406464,44.87265849,11,11,1.181818182,2.363636364,C,Tamarack Lake-1,126,2.806666667,12.45780058,0,0,451300,385150.0,2416.0,3023.0,2,0,84,0,0,436000.0,327587.5,5791.0,6315.0,18,8
1283,82006500-01,2010,-3.350179532,0.35654449,1.72,0.2113449,0,3,4,0,0,0,0,1,0,0,1,6,0,0,0,Hay Lake,Lower St. Croix River,-92.81398535,45.23381325,7,7,2.5714285709999998,1.857142857,C,Hay Lake-1,68,4.647352941,4.913336289,0,0,277250,226900.0,1267.5,1917.0,8,0,56,42,0,245000.0,305000.0,,,0,2
844,27067500-01,2005,-2.656883421,0.524993605,1.089,0.222333583,0,2,0,3,3,0,0,1,0,0,0,7,2,0,1,Pamela Pond,Mississippi River - Twin Cities,-93.33238313,44.89246835,8,10,3.875,2.5,C,Pamela Pond-1,512,,,0,0,283850,98175.0,0.0,0.0,0,0,432,0,0,163500.0,132350.0,2958.0,1160.0,14,0
1640,82015300-01,2013,-4.47675003,0.200876915,2.671428571,0.305310147,1,0,0,0,0,0,0,0,0,1,1,6,0,0,0,Sunset Lake,Mississippi River - Twin Cities,-92.94157024,45.13527125,1,7,1.0,1.857142857,A,Sunset Lake-1,212,2.8314150939999996,4.42194794,0,0,261850,238300.0,1393.0,1858.0,2,0,190,154,0,260000.0,193175.0,,,0,0
801,27017901-01,2010,-4.389572605,0.361136024,4.046153846,0.825242777,13,0,0,0,0,0,0,0,0,1,9,4,0,0,0,Little Long Lake,South Fork Crow River,-93.7082121,44.94773927,13,13,1.0,1.307692308,A,Little Long Lake-1,21,15.16857143,8.380852752000001,0,0,100000,395000.0,0.0,1544.5,0,0,4,0,0,168000.0,43908.0,4042.0,1640.5,0,0
1567,82013200-01,2006,-2.644858343,0.309432307,1.349714286,0.5312672629999999,0,0,2,5,0,0,0,1,0,0,0,0,5,2,0,Woodpile Lake,Lower St. Croix River,-92.90332792,45.06868739,7,7,3.714285714,3.285714286,C,Woodpile Lake-1,35,8.613125,8.835652565,0,0,425000,296900.0,1337.0,1887.0,3,0,30,0,0,22000.0,34478.0,3764.0,2725.5,0,0
618,27000400-01,2013,-2.289895712,0.569841604,0.715384615,0.489636181,0,0,0,12,1,0,1,0,0,0,4,2,4,3,0,Penn Lake,Lower Minnesota River,-93.30604716,44.84744866,13,13,4.076923077,2.461538462,D,Penn Lake-1,730,0.46689560399999996,2.149092251,0,0,184800,37750.0,0.0,0.0,0,0,630,0,0,152638.5,121400.0,2626.5,636.5,34,0
132,10001100-01,2005,-4.071696632,0.16449165,3.1025,0.9538156459999999,4,1,1,1,0,0,0,0,0,1,0,2,2,3,0,St. Joe Lake,Mississippi River - Twin Cities,-93.62296909,44.87564570000001,7,7,1.857142857,3.142857143,A,St. Joe Lake-1,310,0.844387097,1.743430975,0,0,338500,307100.0,1814.5,1876.0,0,0,244,0,0,335000.0,273337.25,4052.0,4184.0,22,10
1524,82012000-01,2012,-2.436211461,0.562962456,1.0425,0.421477334,0,1,5,8,0,0,1,0,0,0,1,4,9,0,0,Benz Lake,Lower St. Croix River,-92.89111722,45.11128554,14,14,3.5,2.5714285709999998,D,Benz Lake-1,48,9.019166667,4.61517102,0,0,362750,221725.0,1798.0,1147.5,0,0,42,36,2,207000.0,255000.0,,,0,0
89,10000200-02,2009,-2.137070655,,1.7,,0,1,0,0,0,0,0,0,0,0,0,1,0,0,0,Riley Lake,Lower Minnesota River,-93.52393956,44.83937512,1,1,2.0,2.0,F,Riley Lake-2,311,0.7006752409999999,3.0481220860000002,0,0,370900,319300.0,1603.0,1937.0,0,0,110,0,0,298988.0,366975.0,4603.0,4189.0,12,0
1057,82001100-01,2014,-1.82607915,0.393830639,0.875,0.23653752399999997,0,0,1,5,0,1,0,0,0,0,0,1,5,0,0,Bay Pond,Lower St. Croix River,-92.83273741,44.99498587,6,6,3.833333333,2.833333333,F,Bay Pond-1,128,2.54734375,4.855013884,0,0,150000,149600.0,0.0,1619.0,0,0,68,58,0,278950.0,500744.5,,,0,0
50,02007900-01,2006,-1.2898728529999999,0.438066136,0.271428571,0.10509022800000001,0,3,0,10,0,1,0,0,0,0,0,0,6,8,0,Highland Lake,Mississippi River - Twin Cities,-93.23309565,45.05890169,13,14,3.5384615389999996,3.571428571,F,Highland Lake-1,714,0.303305322,0.570988414,0,0,237500,88525.0,1323.0,497.0,0,0,680,0,0,208250.0,92575.0,2589.0,1218.75,22,0
1113,82002000-01,2011,-2.831154885,0.46258871,2.394285714,0.8081480659999999,0,7,1,6,0,0,0,1,0,0,0,8,6,0,0,McKusick Lake,Lower St. Croix River,-92.8257844,45.060821000000004,14,14,2.928571429,2.4285714290000002,C,McKusick Lake-1,1039,0.560346487,2.8440898860000003,0,0,194700,84500.0,1262.0,561.0,0,0,856,866,2,174342.0,130000.0,,,28,0
1127,82002500-01,2004,,,2.177,0.685497873,0,4,1,0,0,0,0,0,0,0,0,1,3,2,0,Louise Lake,Lower St. Croix River,-92.84729796,45.12194563,5,6,2.2,3.166666667,F,Louise Lake-1,29,15.275,19.7688897,0,0,334500,520700.0,0.0,0.0,2,0,29,0,0,172450.0,34900.0,2250.0,1786.0,0,0
1114,82002000-01,2012,-2.936085401,0.290345009,2.530818182,0.636824437,1,4,8,1,0,0,0,0,1,0,1,8,4,1,0,McKusick Lake,Lower St. Croix River,-92.8257844,45.060821000000004,14,14,2.642857143,2.357142857,B,McKusick Lake-1,1037,0.561022179,2.8441068780000003,0,0,173400,86450.0,1262.0,561.0,0,0,866,866,2,179900.0,126750.0,,,40,0
1613,82014000-01,2014,-4.183200351,0.205582323,,,3,1,0,0,0,0,0,0,0,0,0,2,2,0,0,Oneka Lake,Mississippi River - Twin Cities,-92.96876765,45.17923514,4,4,1.25,2.5,F,Oneka Lake-1,106,6.043773585,8.725142919,0,0,295300,103400.0,1360.0,1175.5,8,0,84,80,0,247700.0,103206.0,,,0,0
978,70007800-01,2014,-3.7110885689999997,0.282175277,1.3,0.6782329979999999,1,1,0,0,2,0,0,0,0,0,1,3,0,0,0,Haas Lake,Lower Minnesota River,-93.45845139,44.74483813,4,4,3.25,1.75,F,Haas Lake-1,222,1.402972973,4.606067137,0,0,383400,166700.0,1811.0,776.0,0,0,160,0,0,415288.0,173325.0,,,10,0
673,27005700-01,2008,-1.78952451,1.305633174,0.617142857,0.38405585700000006,2,4,0,7,0,1,0,0,0,0,1,6,4,2,1,Meadow Lake,Mississippi River - Twin Cities,-93.38771952,45.06125669,13,14,2.923076923,2.714285714,F,Meadow Lake-1,693,0.404616498,1.293094129,0,0,212000,43000.0,0.0,0.0,0,0,643,0,0,118500.0,115750.0,2616.0,656.0,24,0
624,27002802-01,2009,-2.2219346509999998,0.31289468800000003,0.5642857139999999,0.149908397,0,0,0,14,0,0,1,0,0,0,1,10,3,0,0,Cornelia Lake,Lower Minnesota River,-93.33952406,44.88277422,14,14,4.0,2.142857143,D,Cornelia Lake-1,621,0.642834139,2.078701445,0,0,439300,215700.0,1755.0,710.0,0,0,516,0,0,289500.0,272600.0,6105.0,2749.0,16,0
975,70007400-01,2010,-1.9670706980000001,0.584093191,0.65,0.070710678,5,3,0,0,0,0,0,1,0,0,1,7,0,0,0,Dean Lake,Lower Minnesota River,-93.44465,44.77409896,8,8,1.375,1.875,C,Dean Lake-1,641,1.349563183,8.598152225,0,0,253400,176600.0,1046.0,720.0,2,0,449,0,0,283036.5,114212.0,,,40,0
677,27005800-01,2010,-3.1207962289999998,0.325027334,1.87,0.990005612,2,8,0,0,0,0,0,0,1,0,0,7,3,0,0,Ryan Lake,Mississippi River - Twin Cities,-93.32132645,45.04016361,10,10,1.8,2.3,B,Ryan Lake-1,638,0.370483871,1.187742496,0,0,185000,72800.0,1040.0,1288.0,0,0,522,0,0,149900.0,101100.0,2582.0,1096.0,18,0
1500,82011602-01,2008,-3.1261143989999995,0.639354679,1.142857143,0.19023794600000002,0,0,0,0,0,0,0,1,0,0,1,2,3,1,0,Armstrong Lake,Mississippi River - Twin Cities,-92.93917709,44.96252306,0,7,,2.5714285709999998,C,Armstrong Lake-1,161,1.601360544,5.3078928869999995,0,0,425600,107150.0,0.0,0.0,0,161,0,0,0,400924.0,105500.0,425600.0,107150.0,0,0
1366,82009002-01,2013,-2.6970996410000003,0.225794208,0.8961538459999999,0.251877565,0,1,4,8,0,0,0,1,0,0,0,2,8,3,0,Wilmes Lake,Mississippi River - Twin Cities,-92.91260488,44.92794439,13,13,3.5384615389999996,3.076923077,C,Wilmes Lake-1,602,0.564,1.685002093,0,0,286500,69425.0,2260.0,603.0,0,0,560,582,0,245674.5,154250.0,,,0,0
1574,82013200-01,2013,-3.4847622080000002,0.224630319,3.221666667,0.725055902,0,6,5,1,0,0,0,0,0,1,0,8,4,0,0,Woodpile Lake,Lower St. Croix River,-92.90332792,45.06868739,12,12,2.583333333,2.333333333,A,Woodpile Lake-1,26,10.37230769,8.730951063,0,0,405400,180850.0,1547.0,1004.25,2,0,24,20,2,30132.0,207927.25,,,0,0
1296,82006700-01,2014,-3.297316004,0.188672179,1.5875,0.27363296600000003,3,6,3,0,0,0,0,1,0,0,0,10,2,0,0,Sand Lake,Lower St. Croix River,-92.80407220000001,45.22818996,12,12,2.0,2.166666667,C,Sand Lake-1,98,3.66877551,4.460933115,0,0,307100,339550.0,1346.0,1940.0,2,0,82,66,0,332000.0,261500.0,,,0,0
1505,82011602-01,2013,-2.9952623660000004,0.544243004,0.08,,0,0,0,0,0,0,0,0,0,0,2,1,1,1,1,Armstrong Lake,Mississippi River - Twin Cities,-92.93917709,44.96252306,0,6,,2.666666667,F,Armstrong Lake-1,164,0.909146342,3.231424386,0,0,329000,94400.0,1974.5,2532.0,0,0,110,110,0,372985.0,134335.75,,,0,0
575,19034900-01,2006,-2.554030997,0.460869101,1.371666667,0.760431895,0,2,1,3,0,0,0,0,0,0,0,1,1,3,0,East Lake,Mississippi River - Lake Pepin,-93.17217740000001,44.70651847,6,5,3.166666667,3.4,F,East Lake-1,673,0.797077922,3.50287512,0,0,170800,159850.0,1462.0,1540.0,0,1,284,338,0,181274.0,18507.5,1659.0,213.0,38,0
1639,82015300-01,2012,-3.73605781,0.39367954,3.1642857139999996,0.165111795,2,1,5,0,0,0,0,0,0,1,0,7,1,0,0,Sunset Lake,Mississippi River - Twin Cities,-92.94157024,45.13527125,8,8,2.375,2.125,A,Sunset Lake-1,218,2.75146789,4.380938356000001,0,0,249000,220125.0,1344.0,1852.0,2,0,198,158,0,260000.0,193175.0,,,6,0
1223,82004900-01,2005,-3.907618682,0.18586926,4.3325,1.127332573,9,5,0,0,0,0,0,0,0,1,2,12,0,0,0,Big Carnelian Lake,Lower St. Croix River,-92.80741591,45.13305739,14,14,1.357142857,1.857142857,A,Big Carnelian Lake-1,617,2.706666667,25.87418852,0,0,248200,363800.0,0.0,0.0,3,0,617,0,0,103500.0,97000.0,1566.0,2375.0,0,0
1039,82000900-01,2013,-3.894288772,0.479966099,3.075,1.2232859729999999,4,3,1,0,0,0,0,0,0,1,3,3,2,0,0,Cloverdale Lake,Lower St. Croix River,-92.8523515,45.02040173,8,8,1.625,1.875,A,Cloverdale Lake-1,90,3.88,1.3372972909999998,0,0,520700,336375.0,2961.0,1375.0,0,0,76,78,2,209000.0,340000.0,,,0,0
1092,82001800-01,2007,-3.6617214889999996,0.7072229459999999,1.1974285709999999,0.16314089699999998,4,2,1,0,0,0,0,1,0,0,1,6,0,0,0,North Twin Lake,Lower St. Croix River,-92.84712498,45.08458142,7,7,1.571428571,1.857142857,C,North Twin Lake-1,59,,,0,0,425900,89200.0,0.0,0.0,0,58,0,0,0,214500.0,149000.0,,,0,0
1222,82004900-01,2004,-3.840360794,0.39477000799999995,3.7338571430000003,0.880005757,2,11,1,0,0,0,0,0,0,1,1,9,2,1,0,Big Carnelian Lake,Lower St. Croix River,-92.80741591,45.13305739,14,13,1.928571429,2.230769231,A,Big Carnelian Lake-1,621,2.689617834,25.79226749,0,0,227800,330050.0,0.0,0.0,3,0,621,0,0,107440.0,92100.0,1114.0,2016.0,0,0
255,10008800-01,2012,-2.581479913,0.538072818,1.339285714,0.34204058,0,6,7,1,0,0,0,1,0,0,0,4,7,3,0,Hydes Lake,Lower Minnesota River,-93.87281084,44.81445097,14,14,2.642857143,2.928571429,C,Hydes Lake-1,52,10.76730769,16.36022797,0,0,381000,134025.0,1816.0,1390.0,6,0,41,0,0,297500.0,275000.0,3848.0,1996.5,0,0
821,27062700-01,2012,-1.6352291769999998,0.492095709,0.7454545459999999,0.225227158,0,0,0,3,8,0,1,0,0,0,5,3,3,0,0,Northwood Lake,Mississippi River - Twin Cities,-93.39171496,45.02556284,11,11,4.727272727,1.8181818180000002,D,Northwood Lake-1,1037,0.36008678899999996,1.356125917,0,0,181000,41000.0,1184.0,322.0,0,0,955,0,0,142500.0,126825.0,2898.0,768.0,28,0
714,27008902-01,2009,-4.123322621,0.446703735,3.695833333,0.818107109,11,0,0,0,0,0,0,0,0,1,8,2,0,0,0,Shady Oak Lake,Lower Minnesota River,-93.43243158,44.90832512,11,10,1.0,1.2,A,Shady Oak Lake-1,610,0.595559211,1.416139501,0,0,199950,189525.0,0.0,1528.5,0,0,532,0,0,134900.0,123000.0,2689.0,2580.0,6,0
560,19019800-01,2012,-2.242740184,0.311538775,0.5642857139999999,0.108181776,0,0,0,0,0,0,1,0,0,0,1,0,1,0,0,Scout Lake,Lower Minnesota River,-93.21534043,44.773007,0,2,,2.0,D,Scout Lake-1,387,0.517131783,1.3549251130000002,0,0,280300,242100.0,2604.0,2294.0,0,0,327,347,0,222000.0,215500.0,4092.0,3428.0,8,0
301,10021700-01,2013,-1.921230171,0.45495037,0.7230769229999999,0.330791591,0,0,2,11,0,0,1,0,0,0,0,1,2,9,1,Jonathan Lake,Lower Minnesota River,-93.60631618,44.83232288,13,13,3.8461538460000004,3.769230769,D,Jonathan Lake-1,392,1.0844354840000001,3.8999971560000004,0,0,131700,143500.0,1038.0,1749.0,0,0,197,0,2,169990.0,108321.0,1474.0,1754.0,6,0
695,27007300-01,2013,-3.164105096,0.391128641,2.17,0.512184863,0,0,0,10,0,0,0,0,1,0,0,1,5,4,0,Smetana Lake,Lower Minnesota River,-93.41397049,44.86276626,10,10,4.0,3.3,B,Smetana Lake-1,330,3.548170732,2.9247463110000003,0,0,123100,88225.0,0.0,0.0,0,0,272,0,0,2052676.5,21108236.0,1471.0,1351.0,0,0
525,19008000-01,2011,-3.13738233,0.35454900799999994,1.511111111,0.231540733,6,2,1,0,0,0,0,0,1,0,6,3,0,0,0,Rogers Lake,Mississippi River - Twin Cities,-93.13915635,44.87116478,9,9,1.4444444440000002,1.333333333,B,Rogers Lake-1,291,1.910687285,4.516611128,0,0,267600,172800.0,2136.0,2788.0,0,0,213,0,0,284500.0,196000.0,2654.0,1212.0,4,0
674,27005700-01,2011,-1.508311463,0.6486476210000001,0.435384615,0.263205097,2,6,0,4,0,1,0,0,0,0,0,6,4,3,0,Meadow Lake,Mississippi River - Twin Cities,-93.38771952,45.06125669,12,13,2.5,2.769230769,F,Meadow Lake-1,693,0.404616498,1.29309099,0,0,176000,34000.0,1091.0,236.0,0,0,635,0,0,125000.0,107000.0,2694.0,635.0,16,0
1516,82011900-01,2010,-3.3572473960000004,0.23381947399999997,1.35,0.222036033,0,0,2,5,0,0,0,0,1,0,0,6,1,0,0,Weber Pond,Lower St. Croix River,-92.97036833,45.03515397,7,7,3.714285714,2.142857143,B,Weber Pond-1,146,1.473424658,4.032775794,0,0,341800,192450.0,2104.0,817.5,0,0,104,114,0,224442.0,132925.0,,,4,0
405,19002400-01,2007,-2.981512594,0.636640099,1.8169230769999998,1.1134734290000001,0,0,0,13,0,0,0,1,0,0,0,3,2,7,1,Wood Lake,Lower Minnesota River,-93.26586040000001,44.74111827,13,13,4.0,3.461538462,C,Wood Lake-1,763,0.30126984100000004,1.110506824,0,0,175400,51100.0,1460.0,364.0,0,4,646,725,2,149900.0,83925.0,1761.0,667.0,24,0
814,27062700-01,2005,-2.142986044,0.43421914899999997,1.046153846,0.229548051,0,0,0,9,3,0,0,1,0,0,0,0,2,6,4,Northwood Lake,Mississippi River - Twin Cities,-93.39171496,45.02556284,12,12,4.25,4.166666667,C,Northwood Lake-1,1043,,,0,0,200000,42000.0,0.0,0.0,0,0,997,0,0,115400.0,94200.0,2690.0,655.0,22,0
931,70002600-01,2008,-3.8948618230000003,0.419601624,2.757142857,1.10224546,8,4,2,0,0,0,0,0,1,0,3,6,5,0,0,Lower Prior Lake,Lower Minnesota River,-93.41536363,44.73480944,14,14,1.571428571,2.142857143,B,Lower Prior Lake-1,1264,0.5631091770000001,2.324013899,0,0,282400,301325.0,1238.0,532.5,2,0,1083,0,0,225000.0,173300.0,,,34,0
1582,82013300-01,2010,-3.966052408,0.177587528,2.576923077,0.630018315,11,2,0,0,0,0,0,0,0,1,8,5,0,0,0,Sunnybrook Lake,Lower St. Croix River,-92.91073482,45.05049226,13,13,1.153846154,1.384615385,A,Sunnybrook Lake-1,112,2.7623214289999996,5.629521283,2,2,310550,326175.0,1435.0,1719.0,0,0,108,78,0,216392.0,168000.0,,,0,0
1727,82039900-01,2010,-2.264589294,0.060903949000000006,0.91,0.0,0,0,0,3,0,0,0,0,0,0,0,1,2,0,0,Beutel Pond,Lower St. Croix River,-92.92603756,44.99380613,3,3,4.0,2.666666667,F,Beutel Pond-1,106,2.013207547,4.126177418999999,0,0,208200,164625.0,0.0,1223.0,0,0,40,42,0,232500.0,255700.0,,,0,0
1711,82036500-01,2008,-2.604636669,0.51449113,1.001428571,0.221498295,0,0,1,13,0,0,1,1,0,0,0,2,12,0,0,Capaul Pond,Lower St. Croix River,-92.94207606,45.0380528,14,14,3.928571429,2.857142857,D,Capaul Pond-1,13,11.75769231,12.70190809,0,0,348400,733500.0,0.0,0.0,0,13,0,0,0,200000.0,1295000.0,348400.0,672900.0,0,0
750,27011102-01,2005,-2.082186497,0.840617015,0.735714286,0.42182521,0,9,5,11,1,1,1,0,0,0,0,7,14,4,1,Pike Lake,Mississippi River - Twin Cities,-93.41943368,45.06640871,26,26,3.1538461539999996,2.961538462,F,Pike Lake-1,219,,,0,0,194400,77100.0,0.0,0.0,0,0,181,0,0,130300.0,115400.0,2277.0,1116.0,2,0
1285,82006500-01,2013,-3.3425338589999996,0.271084132,,,0,3,5,4,0,0,0,0,0,0,0,8,4,0,0,Hay Lake,Lower St. Croix River,-92.81398535,45.23381325,12,12,3.083333333,2.333333333,F,Hay Lake-1,68,4.6861764710000005,4.881662926000001,0,0,259800,226000.0,1267.5,1936.0,8,0,56,42,0,245000.0,305000.0,,,0,0
1430,82010400-01,2007,-4.280945657,0.341143252,4.823076923,0.534094009,1,0,0,0,0,0,0,0,0,1,9,0,0,0,0,Jane Lake,Lower St. Croix River,-92.92227254,45.01606807,1,9,1.0,1.0,A,Jane Lake-1,387,,,0,0,356800,194500.0,0.0,0.0,5,379,0,0,0,203800.0,235000.0,,,8,0
5,02000500-01,2005,-1.913823754,0.928383686,0.681666667,0.402759421,0,0,1,9,0,0,1,0,0,0,3,1,1,5,0,George Watch Lake,Mississippi River - Twin Cities,-93.08905468,45.17640481,10,10,3.9,2.8,D,George Watch Lake-1,44,18.96363636,13.24392745,0,0,185050,72500.0,0.0,0.0,0,0,2,0,0,250000.0,0.0,,,0,0
555,19019800-01,2007,-2.46480179,0.34514783600000004,0.675,0.058011935,0,0,0,0,0,0,1,0,0,0,0,0,0,0,0,Scout Lake,Lower Minnesota River,-93.21534043,44.773007,0,0,,,D,Scout Lake-1,394,0.517131783,1.3549251130000002,0,0,364500,285125.0,2547.5,2259.5,0,0,343,345,8,211000.0,201450.0,4100.0,3396.0,8,0
40,02004200-01,2009,-3.174221628,0.105187862,1.0,0.282842713,0,0,2,0,0,0,0,0,0,0,0,0,1,1,0,Coon Lake,Lower St. Croix River,-93.13714784,45.31767312,2,2,3.0,3.5,F,Coon Lake-1,2363,1.010830157,3.098622122,0,0,166300,244100.0,948.0,1280.0,0,0,1290,0,0,163333.0,190000.0,1700.0,2552.5,52,0
1495,82011301-01,2014,-2.635174582,0.8408028540000001,1.435135135,0.902215242,2,10,9,14,2,1,1,1,1,0,0,12,16,8,1,Goose Lake,Lower St. Croix River,-92.91197724,44.96377696,37,37,3.108108108,2.945945946,F,Goose Lake-2,78,2.267948718,2.8629583999999997,0,0,463700,851300.0,2324.0,3061.0,0,0,32,44,0,260000.0,117750.0,,,0,0
1426,82010300-01,2014,-4.122349133999999,0.426905187,3.3181818180000002,0.986730137,10,1,0,0,0,0,0,0,0,1,7,2,1,1,0,Olson Lake,Lower St. Croix River,-92.94542621,45.01857051,11,11,1.0909090909999999,1.636363636,A,Olson Lake-1,452,0.759022222,0.608782731,0,0,295100,131500.0,1604.5,989.0,0,0,378,358,0,223750.0,171225.0,,,0,0
1436,82010400-01,2013,-4.86691245,0.646902957,4.6625,0.679920339,3,0,0,0,0,0,0,0,0,0,4,0,0,0,0,Jane Lake,Lower St. Croix River,-92.92227254,45.01606807,3,4,1.0,1.0,F,Jane Lake-1,382,1.336020942,1.7519836169999998,0,0,301000,164400.0,1504.0,686.0,4,0,334,318,0,256750.0,245025.0,,,0,0
1307,82007600-01,2005,,,1.240857143,0.425956347,0,0,2,5,0,0,0,0,0,0,0,2,2,3,0,Barker Lake,Lower St. Croix River,-92.89930946,45.18460321,7,7,3.714285714,3.142857143,F,Barker Lake-1,8,85.035,11.62268041,0,0,879900,349625.0,0.0,0.0,6,0,8,0,0,,,495.0,1868.5,0,0
37,02003400-01,2005,,,,,0,0,0,0,0,0,1,0,0,0,0,0,0,0,0,Martin Lake,Lower St. Croix River,-93.0833978,45.38581642,0,0,,,D,Martin Lake-1,921,0.722078346,1.612061405,0,0,140900,221600.0,760.0,1168.0,0,0,478,0,0,143000.0,127000.0,,,0,0
1072,82001502-01,2004,-1.993064402,0.267888915,0.544142857,0.17277193899999999,0,4,2,1,0,1,0,0,0,0,0,0,2,4,0,Loon Lake,Lower St. Croix River,-92.83720049,45.1141432,7,6,2.5714285709999998,3.666666667,F,Loon Lake-1,42,11.07863636,12.19957505,0,0,469100,108500.0,0.0,0.0,0,0,42,0,0,162900.0,258500.0,3305.0,1116.0,0,0
824,27063400-01,2006,-2.560653555,0.462410524,1.009090909,0.211917651,0,3,5,3,0,0,0,1,0,0,0,5,6,0,0,Success Lake,Mississippi River - Twin Cities,-93.32400322,45.10348381,11,11,3.0,2.5454545459999998,C,Success Lake-1,749,,,0,0,201800,25200.0,0.0,0.0,0,0,675,0,0,127000.0,113000.0,2445.0,400.0,58,0
880,62004901-01,2007,-2.9616903910000003,0.360297394,1.117307692,0.22669023300000002,2,4,0,1,0,0,0,2,0,0,3,5,9,5,0,Langton Lake,Mississippi River - Twin Cities,-93.18159909999999,45.02926214,7,22,2.0,2.727272727,C,Langton Lake-1,109,,,0,0,249800,165900.0,1186.0,1790.0,0,0,65,65,0,158900.0,142250.0,3034.0,770.0,4,0
635,27003501-01,2010,-3.17689425,0.652535204,1.241666667,0.514922254,6,9,0,5,0,0,0,2,0,0,6,9,7,0,0,Sweeney Lake,Mississippi River - Twin Cities,-93.34160616,44.99052075,20,22,2.2,2.0454545459999998,C,Sweeney Lake-1,309,0.901650485,1.778069194,0,0,329000,205000.0,1555.0,580.0,0,0,269,0,0,179500.0,167000.0,5256.0,3960.0,10,0
117,10000700-01,2012,-2.7298035769999998,0.555848275,1.766666667,1.4367471680000001,5,7,0,0,0,0,0,1,0,0,2,9,1,0,0,Lucy Lake,Lower Minnesota River,-93.55826744,44.87704688,12,12,1.5833333330000001,1.9166666669999999,C,Lucy Lake-1,262,0.995801527,1.357668417,0,0,496850,413975.0,2406.0,1624.0,0,0,235,0,0,450000.0,475000.0,6504.0,5148.0,16,2
1181,82003600-01,2007,,,1.654571429,0.435102615,0,2,0,5,0,0,0,0,0,0,2,2,3,0,0,Turtle Lake,Lower St. Croix River,-92.8674582,45.17814441,7,7,3.428571429,2.142857143,F,Turtle Lake-1,18,,,0,0,242600,226900.0,0.0,0.0,12,17,0,0,0,,,,,0,0
1587,82013401-01,2007,-2.884963776,0.401885006,1.7923076919999998,1.606477274,0,1,0,12,0,0,0,1,0,0,0,3,4,6,0,Lost Lake,Mississippi River - Twin Cities,-92.96992376,45.05205944,13,13,3.8461538460000004,3.230769231,C,Lost Lake-1,261,,,0,0,325500,277300.0,0.0,0.0,0,245,0,0,0,190000.0,146362.0,,,0,0
1364,82009002-01,2011,-2.808799305,0.319180462,1.609090909,0.43693144899999997,0,3,7,1,0,0,0,1,0,0,0,2,8,1,0,Wilmes Lake,Mississippi River - Twin Cities,-92.91260488,44.92794439,11,11,2.8181818180000002,2.9090909089999997,C,Wilmes Lake-1,602,0.564,1.685002093,0,0,299000,71900.0,2260.0,603.0,0,0,570,582,0,244274.0,155675.0,,,8,0
927,70002600-01,2004,-3.7755001710000005,0.316368533,2.683333333,0.957110551,7,5,0,0,0,0,0,0,1,0,1,11,0,0,0,Lower Prior Lake,Lower Minnesota River,-93.41536363,44.73480944,12,12,1.4166666669999999,1.9166666669999999,B,Lower Prior Lake-1,1885,0.48078639700000003,0.8721504940000001,0,0,215600,166200.0,1196.0,514.5,0,0,1644,1394,488,184900.0,136100.0,,,121,0
389,19002200-01,2013,-3.231176422,0.943330861,1.739811321,1.036162466,14,17,12,15,8,1,0,1,1,1,9,33,17,3,4,Long Lake,Mississippi River - Lake Pepin,-93.17320832,44.755920200000006,66,66,2.787878788,2.393939394,F,Long Lake-1,463,0.7842980559999999,1.34008072,0,0,230800,70500.0,2348.0,1035.0,0,0,416,424,0,236000.0,167884.5,3032.5,892.0,18,0
1088,82001700-01,2013,-3.533212401,0.405662465,1.010666667,0.22803800899999999,0,0,0,8,2,0,0,0,0,0,0,4,5,1,0,Carol Lake,Lower St. Croix River,-92.84101343,45.09783873,10,10,4.2,2.7,F,Carol Lake-1,20,21.191999999999997,10.62248341,0,0,376350,310500.0,1447.5,2841.0,4,0,16,12,0,340000.0,0.0,,,0,0
1115,82002000-01,2013,-2.8242110410000003,0.25032474,1.7981818180000002,0.407500139,0,1,4,7,0,0,0,1,0,0,0,4,7,1,0,McKusick Lake,Lower St. Croix River,-92.8257844,45.060821000000004,12,12,3.5,2.75,C,McKusick Lake-1,1037,0.561427194,2.846734885,0,0,172600,92750.0,1262.0,561.0,0,0,848,866,2,179900.0,126750.0,,,0,0
582,19034900-01,2014,-2.957723007,0.266815464,1.120833333,0.519378271,3,6,0,2,1,0,0,1,0,0,2,7,3,0,0,East Lake,Mississippi River - Lake Pepin,-93.17217740000001,44.70651847,12,12,2.333333333,2.083333333,C,East Lake-1,654,0.8296575340000001,3.594023182,0,0,141300,194975.0,1590.0,1292.0,0,0,458,530,0,189671.0,196601.0,1456.0,866.0,67,0
508,19004700-01,2009,-3.434031632,0.654340017,2.0,1.029563014,0,2,2,0,0,0,0,0,0,0,0,2,1,1,0,Hornbean Lake,Mississippi River - Twin Cities,-93.10364718,44.86312167,4,4,2.5,2.75,F,Hornbean Lake-1,121,2.747767857,5.860604881,0,0,422200,436700.0,3320.0,2628.0,1,0,93,93,0,229315.0,201885.0,4205.0,2894.0,0,0
1452,82010700-01,2009,-3.666447611,0.38640156299999995,2.55,1.276865152,11,0,3,0,0,0,0,0,1,0,4,8,2,0,0,Sunfish Lake,Lower St. Croix River,-92.89160242,44.99924011,14,14,1.428571429,1.857142857,B,Sunfish Lake-2,161,3.367375,6.206933077,0,0,232000,410500.0,1222.0,2506.0,4,160,0,0,0,416897.0,625000.0,236100.0,409850.0,0,0
1183,82003600-01,2009,,,1.1755714290000001,0.145106693,0,1,0,6,0,0,0,0,0,0,1,3,3,0,0,Turtle Lake,Lower St. Croix River,-92.8674582,45.17814441,7,7,3.714285714,2.285714286,F,Turtle Lake-1,18,20.87176471,11.76626493,0,0,213850,274600.0,0.0,0.0,12,17,0,0,0,,,82700.0,66200.0,0,0
368,19002000-01,2011,-2.186766978,0.44806138799999995,0.466,0.25781992,0,0,0,10,0,1,0,0,0,0,0,0,0,10,0,Chub Lake,Cannon River,-93.21735344,44.56872497,10,10,4.0,4.0,F,Chub Lake-1,57,18.15842105,22.24718135,8,8,305400,253950.0,1926.0,3240.0,6,0,47,0,0,117900.0,236900.0,2976.0,3142.0,0,0
1632,82015300-01,2005,-4.204710346000001,0.24779305199999999,3.720588235,0.69710536,2,3,8,1,0,0,0,0,0,1,4,12,0,0,0,Sunset Lake,Mississippi River - Twin Cities,-92.94157024,45.13527125,14,16,2.5714285709999998,1.75,A,Sunset Lake-1,224,3.871709402,12.53806496,0,0,309200,384700.0,0.0,0.0,2,0,224,0,0,183705.0,106875.0,2740.0,3494.0,0,0
418,19002500-01,2009,-2.5734754,0.554589208,0.752222222,0.498040605,1,1,1,5,3,0,1,0,0,0,2,0,5,1,2,Keller Lake,Lower Minnesota River,-93.2520238,44.72650508,11,10,3.727272727,3.1,D,Keller Lake-1,585,0.563745705,2.154356206,0,0,262900,96700.0,2378.0,1159.0,0,2,543,555,0,224900.0,132525.0,3080.0,1191.5,16,0
1324,82007700-01,2014,-2.732922388,0.40813635200000004,1.055,0.265141472,0,0,6,6,0,0,1,0,0,0,0,1,10,1,0,Goggins Lake,Lower St. Croix River,-92.89283249,45.13303508,12,12,3.5,3.0,D,Goggins Lake-1,32,12.3225,11.98880365,0,0,371550,140575.0,1526.0,1311.75,4,0,30,26,0,200000.0,252875.0,,,0,0
1594,82013500-01,2010,-2.624023119,0.239054376,0.718571429,0.170335803,0,0,1,6,0,0,1,0,0,0,0,0,7,0,0,Echo Lake,Lower St. Croix River,-92.97449078,45.04335918,7,7,3.857142857,3.0,D,Echo Lake-1,406,1.088423645,5.27920294,0,0,483000,196000.0,2507.0,966.0,0,0,364,370,0,374600.0,333994.0,,,6,0
665,27005300-01,2008,-1.889220844,0.40841185700000004,0.276923077,0.059914469000000005,0,0,0,12,0,1,0,0,0,0,2,2,3,6,0,Cobblecrest Lake,Mississippi River - Twin Cities,-93.39348337,44.95013,12,13,4.0,3.0,F,Cobblecrest Lake-1,462,0.48517316,0.73736727,0,0,244300,81100.0,0.0,0.0,0,0,398,0,0,132000.0,131500.0,2852.0,996.5,36,0
18,02000900-01,2007,-2.456144284,0.509887996,0.622222222,0.21666666699999998,2,7,0,0,0,0,1,0,0,0,0,8,1,0,0,Reshanau Lake,Mississippi River - Twin Cities,-93.09866122,45.15292958,9,9,1.7777777780000001,2.111111111,D,Reshanau Lake-1,777,0.882947233,2.12837402,0,0,291700,166850.0,1404.0,1058.5,0,0,603,0,0,310000.0,170100.0,3905.0,2098.0,22,0
693,27007000-01,2013,-3.3374529280000003,0.44184047200000004,1.5666666669999998,0.534846339,12,0,0,1,0,0,0,1,0,0,12,0,0,1,0,Mitchell Lake,Lower Minnesota River,-93.49817264,44.85899641,13,13,1.230769231,1.230769231,C,Mitchell Lake-1,1206,0.6822923590000001,1.711510558,0,0,253550,255000.0,0.0,1024.0,0,0,1047,0,0,208000.0,205500.0,3840.0,3962.0,48,0
678,27005800-01,2012,-3.117277884,0.16849074600000002,2.925,1.23928743,1,1,0,2,0,0,0,0,0,0,0,2,1,0,1,Ryan Lake,Mississippi River - Twin Cities,-93.32132645,45.04016361,4,4,2.75,3.0,F,Ryan Lake-1,634,0.371785714,1.191485945,0,0,161000,49625.0,1040.0,1288.0,0,0,518,0,0,145650.0,95900.0,2571.0,847.0,20,0
98,10000500-01,2008,-4.067290659,0.560327814,3.553571429,1.53878877,6,6,0,2,0,0,0,0,0,1,6,7,1,0,0,Courthouse Lake,Lower Minnesota River,-93.59002821,44.78926982,14,14,1.857142857,1.642857143,A,Courthouse Lake-1,277,0.729963899,3.4316085610000004,0,0,170500,94250.0,1310.0,412.0,0,0,109,0,0,186900.0,166680.0,1929.0,1206.0,10,0
487,19003200-01,2014,-3.6116170260000002,0.416334484,2.23631579,0.780699192,12,2,2,3,0,0,0,1,0,0,3,7,9,0,0,Horseshoe Lake,Lower Minnesota River,-93.30264228,44.71796603,19,19,1.789473684,2.3157894740000002,C,Horseshoe Lake-1,86,2.849302326,2.0502452019999997,0,0,285100,152200.0,2308.0,1386.75,0,0,76,72,0,155000.0,224000.0,3559.0,2141.0,0,0
1391,82009700-01,2005,-2.78976712,0.118742242,1.715384615,0.478880907,0,4,6,3,0,0,0,1,0,0,2,6,2,3,0,La Lake,Mississippi River - Twin Cities,-92.97139840000001,44.88725237,13,13,2.923076923,2.461538462,C,La Lake-1,211,1.96352381,5.9378295020000005,0,0,90000,197300.0,0.0,0.0,8,0,211,0,0,,,556.0,627.0,0,0
1538,82012300-01,2004,-3.504368413,0.16565458,2.612571429,0.572962145,1,6,0,0,0,0,0,0,1,0,0,7,0,0,0,Bass Lake,Lower St. Croix River,-92.91774882,45.16515848,7,7,1.857142857,2.0,B,Bass Lake-1,94,4.685106383,3.15836768,0,0,352300,108900.0,0.0,0.0,0,0,94,0,0,180000.0,78025.0,2696.0,811.0,0,0
956,70005400-01,2012,-2.165604496,0.5121480589999999,0.7875,0.18077215300000002,1,5,2,0,0,0,1,0,0,0,0,4,3,1,0,Spring Lake,Lower Minnesota River,-93.46843381,44.70181062,8,8,2.125,2.625,D,Spring Lake-1,614,0.434625407,1.783182477,0,0,185050,169875.0,1027.5,566.5,0,0,443,0,0,159400.0,137600.0,,,0,0
1287,82006700-01,2004,-3.542759277,0.292233195,2.438285714,0.777175595,0,7,0,0,0,0,0,0,1,0,0,3,3,1,0,Sand Lake,Lower St. Croix River,-92.80407220000001,45.22818996,7,7,2.0,2.714285714,B,Sand Lake-1,98,4.2706,5.699265764,0,0,259750,348300.0,0.0,0.0,4,0,98,0,0,175000.0,100875.0,2050.0,2510.0,0,0
491,19003300-01,2007,-3.254319038,0.351216309,1.466666667,0.445856343,0,1,0,11,0,0,0,1,0,0,0,9,1,0,0,Earley Lake,Lower Minnesota River,-93.29337284,44.73975323,12,10,3.833333333,2.1,C,Earley Lake-1,332,0.46080808100000004,1.302661006,0,0,298100,59425.0,2471.5,754.0,0,2,261,271,8,259450.0,100222.5,2943.0,735.0,3,0
759,27011601-01,2010,-1.848578329,0.674787899,1.021428571,0.525032704,0,2,7,5,0,0,1,0,0,0,0,1,7,6,0,Rice Elm Lake,Mississippi River - Twin Cities,-93.46614319,45.11672618,14,14,3.214285714,3.357142857,D,Rice Elm Lake-1,2158,0.502493049,1.3991466019999999,0,0,253200,150400.0,1388.0,953.0,0,0,1938,0,0,174900.0,123138.5,3344.0,1746.0,64,0
810,27019900-01,2010,-3.0564776819999997,0.292861667,1.430769231,0.9750082179999999,1,6,6,0,0,0,0,1,0,0,2,5,6,0,0,Hafften Lake,North Fork Crow River,-93.67777499,45.09449117,13,13,2.384615385,2.307692308,C,Hafften Lake-1,56,4.6828571430000006,3.348910115,0,0,527500,371125.0,2166.0,1848.0,0,0,44,0,0,141000.0,170787.75,6377.0,4477.0,0,0
1477,82011000-01,2012,-1.358241952,0.554077913,0.343142857,0.166520698,0,0,0,7,0,1,0,0,0,0,0,0,5,2,0,Downs Lake,Lower St. Croix River,-92.86598768,44.98198473,7,7,4.0,3.285714286,F,Downs Lake-1,166,2.64939759,4.646078659,0,0,306300,100000.0,1828.0,1075.0,2,0,146,138,2,255000.0,191768.5,,,2,0
1277,82006500-01,2004,-2.4688434480000003,0.140207212,1.174714286,0.34739733,0,7,0,0,0,0,1,0,0,0,0,5,2,0,0,Hay Lake,Lower St. Croix River,-92.81398535,45.23381325,7,7,2.0,2.285714286,D,Hay Lake-1,74,5.62945946,8.529339542999999,0,0,293500,288650.0,0.0,0.0,8,0,74,0,0,94500.0,144025.0,2158.0,2142.5,0,0
850,27071100-01,2008,-3.528084338,0.197559698,1.192857143,0.38775913,0,2,1,4,0,0,0,0,1,0,0,4,3,0,0,Westwood Lake,Mississippi River - Twin Cities,-93.38765176,44.97082571,7,7,3.285714286,2.4285714290000002,B,Westwood Lake-1,203,2.053399015,13.79252419,0,0,400200,212400.0,0.0,0.0,0,0,167,0,0,221500.0,166354.0,4802.0,2130.0,4,0
1294,82006700-01,2011,-2.9648751910000004,0.38125258700000003,1.871428571,0.542323046,0,4,3,0,0,0,0,0,0,0,0,5,2,0,0,Sand Lake,Lower St. Croix River,-92.80407220000001,45.22818996,7,7,2.4285714290000002,2.285714286,F,Sand Lake-1,200,3.5954,4.432619703,0,0,259000,299200.0,1319.0,1924.0,4,0,172,132,0,332000.0,261500.0,,,16,0
969,70007400-01,2004,-2.335335822,0.530993308,0.425,0.087806606,0,0,0,4,0,0,1,0,0,0,1,3,2,0,0,Dean Lake,Lower Minnesota River,-93.44465,44.77409896,4,6,4.0,2.166666667,D,Dean Lake-1,957,1.3524346919999999,8.785013141,0,0,23800,319000.0,0.0,1512.0,3,0,376,133,285,335872.0,80712.0,,,24,0
766,27012700-01,2004,-2.301331704,1.165318262,0.6785714290000001,0.27516229,0,0,0,2,5,1,0,0,0,0,1,3,0,1,2,French Lake,Mississippi River - Twin Cities,-93.50683483,45.17789588,7,7,4.714285714,3.0,F,French Lake-1,30,,,0,0,74250,212825.0,0.0,0.0,6,0,21,0,0,175000.0,107000.0,1522.0,3828.0,0,0
765,27012500-01,2004,-1.898359467,0.377865655,0.37307692299999995,0.072501105,0,0,0,0,0,1,0,0,0,0,0,0,0,0,0,Diamond Lake,Mississippi River - Twin Cities,-93.50462608,45.20190499,0,0,,,F,Diamond Lake-1,110,,,0,0,273000,114625.0,0.0,0.0,11,0,101,0,0,222900.0,183000.0,3582.0,1756.0,1,0
1670,82030100-01,2004,-3.041901462,0.184480628,2.100928571,0.427704331,0,5,3,0,0,0,0,0,1,0,1,13,0,0,0,Schroeder Pond,Lower St. Croix River,-92.8384604,45.14368468,8,14,2.375,1.928571429,B,Schroeder Pond-1,9,35.944,53.64967875,0,0,266100,791700.0,0.0,0.0,2,0,9,0,0,,,1458.0,3774.0,0,0
186,10002900-01,2012,-1.5452513959999998,0.260590654,0.588461539,0.24677405800000002,0,0,8,5,0,1,0,0,0,0,0,0,9,4,0,Miller Lake,Lower Minnesota River,-93.74305702,44.78713912,13,13,3.384615385,3.307692308,F,Miller Lake-1,6,104.5883333,48.14308857,6,6,750700,1175050.0,1836.0,7419.75,1,0,2,0,0,410000.0,0.0,6017.0,9754.5,0,0
234,10008000-01,2007,-1.905794725,0.631406424,0.658571429,0.267109751,0,0,5,1,0,1,0,0,0,0,0,3,1,3,0,Rutz Lake,Lower Minnesota River,-93.85951756,44.87183629,6,7,3.166666667,3.0,F,Rutz Lake-1,26,13.32807692,22.39160307,1,1,322800,336775.0,0.0,1942.5,2,0,9,0,0,51500.0,83000.0,1803.0,2310.25,0,0
906,62007200-01,2010,-3.165004202,0.270749648,1.753571429,0.803948019,2,4,5,3,0,0,0,1,0,0,0,3,5,6,0,Karth Lake,Mississippi River - Twin Cities,-93.149834,45.07400149,14,14,2.642857143,3.214285714,C,Karth Lake-1,817,0.41882208600000004,1.071560018,0,0,254200,168000.0,1892.0,1112.5,0,8,673,783,0,185000.0,166260.0,3174.0,2246.0,24,0
581,19034900-01,2013,-2.548102197,0.546439937,0.8409090909999999,0.588565282,2,1,1,6,1,0,1,0,0,0,1,2,5,3,0,East Lake,Mississippi River - Lake Pepin,-93.17217740000001,44.70651847,11,11,3.272727273,2.9090909089999997,D,East Lake-1,660,0.809731544,3.5591751680000003,0,0,119100,52300.0,1519.0,1777.0,0,0,419,472,0,186000.0,130490.5,1542.0,596.0,46,0
1508,82011700-01,2009,-0.42223333799999996,0.138459693,0.35914285700000004,0.287644705,0,0,0,7,0,1,0,0,0,0,0,1,4,2,0,Kramer Pond,Lower St. Croix River,-92.89510948,44.95392659,7,7,4.0,3.142857143,F,Kramer Pond-1,53,5.161886793,9.46994173,0,0,421500,484400.0,1500.0,2379.0,6,53,0,0,0,52000.0,267925.0,382500.0,486550.0,0,0
1707,82033400-01,2011,-3.212757709,0.319673075,1.8107142859999998,0.231166416,0,7,4,3,0,0,0,1,0,0,0,11,3,0,0,Kismet Lake,Lower St. Croix River,-92.89173259999998,45.09536417,14,14,2.714285714,2.214285714,C,Kismet Lake-1,28,13.89857143,20.09167281,0,0,339400,87500.0,1632.5,2122.0,4,0,24,20,0,305500.0,391125.0,,,0,0
998,70009500-01,2011,-3.5032217880000003,0.329240642,1.614285714,0.782360475,9,5,0,0,0,0,0,1,0,0,7,6,1,0,0,O'Dowd Lake,Lower Minnesota River,-93.51540390000001,44.744893100000006,14,14,1.357142857,1.571428571,C,O'Dowd Lake-1,336,2.259865772,6.622608962999999,0,0,312650,397375.0,1332.0,1800.75,2,0,191,0,0,294071.5,389550.0,,,0,0
691,27007000-01,2011,-3.184180497,0.460718366,2.015384615,1.276614112,12,1,0,0,0,0,0,1,0,0,13,0,0,0,0,Mitchell Lake,Lower Minnesota River,-93.49817264,44.85899641,13,13,1.076923077,1.0,C,Mitchell Lake-1,1207,0.6925062240000001,1.7645868180000002,0,0,275100,277100.0,0.0,1024.0,0,0,1060,0,0,209000.0,177039.0,3953.0,4030.25,35,0
716,27009100-01,2006,-2.185688213,0.30820726600000004,0.9928571429999999,0.29990841100000004,0,0,0,6,3,0,1,0,0,0,3,3,3,4,0,Wing Lake,Lower Minnesota River,-93.47439386,44.90265772,9,13,4.333333333,2.615384615,D,Wing Lake-1,419,,,0,0,334500,140200.0,0.0,0.0,0,0,378,0,0,232000.0,262500.0,3875.0,1820.5,10,0
964,70007200-01,2009,-3.176908785,0.389766747,2.386666667,1.443144714,4,9,2,0,0,0,0,1,0,0,4,7,3,1,0,Upper Prior Lake,Lower Minnesota River,-93.44208405,44.71536216,15,15,1.8666666669999998,2.066666667,C,Upper Prior Lake-1,1046,0.322549801,0.490829839,0,0,220600,234700.0,1058.0,474.0,0,0,796,0,0,173000.0,151095.0,,,0,0
626,27002802-01,2014,-2.584110073,0.42311291700000003,0.46333333299999996,0.401281281,0,0,0,6,0,0,1,0,0,0,0,2,3,0,1,Cornelia Lake,Lower Minnesota River,-93.33952406,44.88277422,6,6,4.0,3.0,D,Cornelia Lake-1,623,0.641268058,2.066259221,0,0,413000,184900.0,1755.0,707.0,0,0,522,0,0,329750.0,295000.0,6508.0,2844.0,10,0
118,10000700-01,2013,-2.916000848,0.213369162,1.57,1.116592037,2,8,0,0,0,0,0,1,0,0,3,7,0,0,0,Lucy Lake,Lower Minnesota River,-93.55826744,44.87704688,10,10,1.8,1.7,C,Lucy Lake-1,262,0.995801527,1.357668417,0,0,511700,439325.0,2406.0,1624.0,0,0,229,0,0,450000.0,472615.5,6608.0,5390.0,10,0
1633,82015300-01,2006,-3.8727729930000003,0.27505399,3.29,0.591514065,2,0,0,0,0,0,0,0,0,1,1,11,0,0,0,Sunset Lake,Mississippi River - Twin Cities,-92.94157024,45.13527125,2,12,1.0,1.9166666669999999,A,Sunset Lake-1,224,3.871709402,12.53806496,0,0,325600,390325.0,1332.0,1792.75,2,0,195,0,0,245500.0,173500.0,3020.0,3856.0,8,0
1158,82003100-01,2013,,,3.5,,0,6,1,0,0,0,0,0,0,0,0,7,0,0,0,Terrapin Lake,Lower St. Croix River,-92.82016292,45.18227666,7,7,2.142857143,2.0,F,Terrapin Lake-1,30,22.01466667,14.75438818,0,0,407100,394700.0,0.0,0.0,2,0,2,2,0,12000.0,0.0,,,0,0
1152,82003100-01,2007,-3.715020998,0.28603320600000004,3.069857143,0.566413109,1,4,0,2,0,0,0,0,1,0,1,4,2,0,0,Terrapin Lake,Lower St. Croix River,-92.82016292,45.18227666,7,7,2.4285714290000002,2.142857143,B,Terrapin Lake-1,33,,,0,0,314400,259400.0,0.0,0.0,0,32,0,0,0,12000.0,0.0,,,0,0
788,27017100-01,2013,-1.372668561,0.31745969,0.576153846,0.324205142,0,0,0,13,0,0,1,0,0,0,0,2,3,8,0,Sylvan Lake,North Fork Crow River,-93.60934728,45.1909921,13,13,4.0,3.461538462,D,Sylvan Lake-1,54,11.50018519,29.22453444,2,2,386000,386250.0,2078.0,3016.0,3,0,29,0,0,249900.0,266250.0,6688.0,6763.75,4,0
818,27062700-01,2009,-1.672894815,0.553147095,1.05,0.108012345,0,0,0,5,6,0,1,0,0,0,0,6,1,2,2,Northwood Lake,Mississippi River - Twin Cities,-93.39171496,45.02556284,11,11,4.545454546,3.0,D,Northwood Lake-1,1037,0.36006750200000004,1.356277872,0,0,233000,47000.0,1184.0,321.5,0,0,965,0,0,140000.0,130140.0,3178.0,708.0,32,0
1719,82036800-01,2009,-1.916270155,0.217787523,0.619285714,0.715578994,0,5,2,6,1,0,1,0,0,0,0,2,4,8,0,Klawitter Pond,Lower St. Croix River,-92.90854993,45.03272598,14,14,3.214285714,3.428571429,D,Klawitter Pond-1,87,2.923333333,5.35566309,0,0,416300,296400.0,1974.0,888.0,0,87,0,0,0,237500.0,262250.0,416300.0,296400.0,0,0
1583,82013300-01,2011,-3.433565865,0.66323967,2.1571428569999997,0.524352033,7,7,0,0,0,0,0,0,1,0,6,8,0,0,0,Sunnybrook Lake,Lower St. Croix River,-92.91073482,45.05049226,14,14,1.5,1.571428571,B,Sunnybrook Lake-1,112,2.7623214289999996,5.629519362999999,2,2,270250,286450.0,1435.0,1719.0,0,0,108,78,0,216392.0,168000.0,,,0,0
168,10001900-01,2005,-2.98833552,0.42003897799999995,1.476666667,0.33838717799999996,4,11,2,0,0,0,0,1,0,0,4,9,4,0,0,Bavaria Lake,Lower Minnesota River,-93.63778927,44.83812233,17,17,1.882352941,2.0,C,Bavaria Lake-1,334,1.546676647,5.266717759,0,0,371450,431675.0,1689.0,2531.75,1,0,220,0,0,368647.0,455000.0,4089.0,4803.5,16,8
267,10009500-01,2008,-1.3719642230000002,0.612838753,0.423333333,0.233656239,0,0,0,12,1,1,0,0,0,0,1,3,4,5,1,Swede Lake,South Fork Crow River,-93.81824759999999,44.930824,13,14,4.076923077,3.142857143,F,Swede Lake-1,28,11.07,19.27645061,1,1,284600,333250.0,1742.0,2264.5,2,0,12,0,0,147500.0,228375.0,2639.0,2369.0,0,0
1663,82016300-01,2009,-2.823804038,1.619421648,3.7364615389999996,2.909905885,14,4,0,7,1,1,0,0,0,1,5,12,5,3,1,Clear Lake,Mississippi River - Twin Cities,-93.00000905,45.26003767,26,26,2.115384615,2.346153846,F,Clear Lake-1,986,1.034319345,3.300075908,0,0,206850,208300.0,1118.0,1670.0,0,977,0,0,0,178500.0,133705.0,208800.0,206550.0,0,0
1145,82002800-01,2008,,,2.590857143,0.570157414,0,3,4,0,0,0,0,0,0,0,0,4,3,0,0,Staples Lake,Lower St. Croix River,-92.8547918,45.18394056,7,7,2.5714285709999998,2.4285714290000002,F,Staples Lake-1,35,11.58848485,8.304785187,0,0,450900,135400.0,0.0,0.0,0,35,0,0,0,180000.0,69500.0,394400.0,154900.0,1,0
792,27017500-01,2007,-1.989563502,0.529611831,0.85,0.281069387,0,0,0,2,4,0,1,0,0,0,0,1,3,2,0,Henry Lake,Mississippi River - Twin Cities,-93.60666123,45.16812808,6,6,4.666666667,3.166666667,D,Henry Lake-1,45,14.87177778,33.87132974,0,0,270000,257500.0,0.0,0.0,2,0,25,0,0,167450.0,72100.0,3704.0,2187.5,0,0
317,10022500-01,2007,-3.952957085,0.43074554600000003,3.461538462,1.1701413459999999,10,3,0,0,0,0,0,0,0,1,10,2,1,0,0,Brickyard Clayhole Lake,Lower Minnesota River,-93.59982271,44.79400718,13,13,1.230769231,1.307692308,A,Brickyard Clayhole Lake-1,82,2.869634146,8.925865237,0,0,169000,412650.0,1008.0,7326.0,2,0,15,0,0,167385.0,257313.0,1767.0,16071.5,2,0
1135,82002602-01,2004,,,1.2409999999999999,0.20517634699999998,0,0,2,0,0,0,0,0,0,0,0,4,1,1,0,Mud Lake,Lower St. Croix River,-92.87389184,45.18272507,2,6,3.0,2.5,F,Mud Lake-1,15,38.59125,14.08574298,0,0,272000,320700.0,0.0,0.0,10,0,15,0,0,,,172.0,1548.0,0,0
1419,82010300-01,2007,-3.6624285789999997,0.299476938,2.463636364,0.9656839309999999,8,2,0,0,0,0,0,0,1,0,4,6,1,0,0,Olson Lake,Lower St. Croix River,-92.94542621,45.01857051,10,11,1.2,1.727272727,B,Olson Lake-1,463,,,0,0,339000,172700.0,0.0,0.0,0,458,0,0,0,198000.0,193500.0,,,4,0
918,70001800-01,2008,-4.023945776000001,0.117993482,2.1,0.18439088899999997,0,0,0,12,0,0,0,0,1,0,0,3,7,2,0,Cates Lake,Lower Minnesota River,-93.39037061,44.72747129,12,12,4.0,2.916666667,B,Cates Lake-1,384,0.735235602,1.159742402,0,0,321300,228200.0,1400.0,609.0,0,0,314,0,0,284662.5,265100.0,,,14,0
346,13004200-01,2005,-2.4058245609999998,0.521205238,1.513214286,0.532828473,0,0,2,11,1,0,0,0,0,0,0,9,5,0,0,Birch Lake,Lower St. Croix River,-92.89764541,45.30070147,14,14,3.928571429,2.357142857,F,Birch Lake-1,9,16.0025,2.338509141,0,0,367700,244050.0,0.0,0.0,0,0,9,0,0,168300.0,59800.0,2422.0,2200.0,0,0
1493,82011301-01,2012,-2.008097445,0.6777167890000001,0.6960285709999999,0.816088645,0,1,12,22,0,3,0,1,0,0,0,4,16,15,0,Goose Lake,Lower St. Croix River,-92.91197724,44.96377696,35,35,3.6,3.314285714,F,Goose Lake-2,78,2.265897436,2.8606953269999997,0,0,159600,742100.0,2324.0,3061.0,0,0,36,44,0,260000.0,117750.0,,,2,4
210,10005900-01,2007,-3.4591911989999997,0.320416411,1.9923076919999998,0.626447043,6,4,3,0,0,0,0,1,0,0,6,3,4,0,0,Waconia Lake,Lower Minnesota River,-93.77585994,44.87281942,13,13,1.769230769,1.846153846,C,Waconia Lake-1,135,3.722857143,11.74049148,0,0,162600,445900.0,0.0,1776.0,2,0,36,0,0,349900.0,628000.0,1698.0,3377.5,14,4
847,27071100-01,2005,-2.6876593439999996,0.887243343,1.4,0.202072594,0,1,1,2,1,0,0,1,0,0,0,4,0,1,1,Westwood Lake,Mississippi River - Twin Cities,-93.38765176,44.97082571,5,6,3.6,2.833333333,C,Westwood Lake-1,221,,,0,0,315600,153700.0,0.0,0.0,0,0,167,0,0,178000.0,137500.0,4199.0,2027.75,8,0
1304,82007200-01,2013,-3.352824048,0.275715947,1.730769231,0.580781966,8,5,0,0,0,0,0,1,0,0,9,4,0,0,0,White Rock Lake,Mississippi River - Twin Cities,-92.89308991,45.22389054,13,13,1.384615385,1.307692308,C,White Rock Lake-1,58,8.952758621000001,11.94106255,0,0,227200,183050.0,1256.0,1624.5,4,0,38,34,4,250000.0,588000.0,,,0,0
1165,82003300-01,2013,,,5.742857142999999,0.315473944,3,4,0,0,0,0,0,0,0,0,0,7,0,0,0,Mays Lake,Lower St. Croix River,-92.82044805,45.16809879,7,7,1.571428571,2.0,F,Mays Lake-1,8,42.6075,9.780012781,0,0,1172050,1578925.0,760.0,1631.0,0,0,0,4,0,,,,,0,0
1015,82000200-01,2012,-3.210501252,0.6155366720000001,1.9333333330000002,0.450185147,0,0,0,6,0,0,0,0,0,0,0,3,2,1,0,O'Connors Lake,Lower St. Croix River,-92.78863940000001,44.83029434,6,6,4.0,2.666666667,F,O'Connors Lake-1,10,29.938000000000002,9.997925118,0,0,447100,339025.0,0.0,482.25,6,0,6,2,0,6300000.0,6000000.0,,,0,0
1125,82002300-01,2013,-3.524560321,0.35620615200000005,2.2675,0.891873666,0,2,4,6,0,0,0,0,1,0,0,5,5,1,1,Lily Lake,Lower St. Croix River,-92.82307526,45.04910509,12,12,3.333333333,2.833333333,B,Lily Lake-1,646,0.459318885,0.7843497290000001,0,0,173100,74600.0,1187.0,477.0,0,0,542,544,0,171700.0,129595.0,,,0,0
1346,82008900-01,2004,-2.052497301,0.43449759299999996,0.518571429,0.208800867,0,0,0,14,0,0,1,0,0,0,0,0,4,10,0,Markgraf Lake,Mississippi River - Twin Cities,-92.89723902,44.94046314,14,14,4.0,3.714285714,D,Markgraf Lake-1,1171,0.51302521,1.750125435,0,0,185300,84200.0,0.0,0.0,0,0,1171,0,0,,,1688.0,932.0,0,13
1404,82010100-01,2007,-3.629275878,0.5147158310000001,1.8666666669999998,1.285820102,7,2,0,0,0,0,0,1,0,0,4,5,1,1,0,DeMontreville Lake,Lower St. Croix River,-92.93991097,45.02166106,9,11,1.222222222,1.9090909090000001,C,DeMontreville Lake-1,265,,,0,0,329800,479750.0,0.0,0.0,0,260,0,0,0,297500.0,327375.0,,,2,0
332,10022600-01,2011,-3.7707466060000003,0.311069623,2.525,0.64543854,4,9,1,0,0,0,0,0,0,1,2,10,2,0,0,Fireman's Clayhole Lake,Lower Minnesota River,-93.60344874,44.79128839,14,14,1.785714286,2.0,A,Fireman's Clayhole Lake-1,286,0.5778671329999999,1.2851783940000001,0,0,133050,190900.0,1127.0,2025.5,0,0,136,0,6,155000.0,321570.0,2038.0,4444.0,8,0
337,13002300-01,2005,-2.102298524,0.558358232,0.990642857,0.530383839,0,1,1,10,2,0,1,0,0,0,0,1,5,6,2,Moody Lake,Lower St. Croix River,-92.86717247,45.30161606,14,14,3.928571429,3.642857143,D,Moody Lake-1,15,2.215,1.6559158019999998,0,0,25000,219600.0,0.0,0.0,0,0,15,0,0,137950.0,35900.0,1788.5,1467.75,0,0
420,19002500-01,2011,-2.8371743169999997,0.54615105,0.8384615390000001,0.701829112,2,1,0,10,0,0,1,0,0,0,2,2,1,5,3,Keller Lake,Lower Minnesota River,-93.2520238,44.72650508,13,13,3.384615385,3.384615385,D,Keller Lake-1,582,0.563745705,2.154356206,0,0,240500,88750.0,2400.0,1168.0,0,0,543,0,0,229950.0,135000.0,3016.0,1138.0,14,0
1534,82012200-01,2011,-3.748915303,0.285364897,2.727272727,0.38233730899999996,8,2,1,0,0,0,0,0,1,0,3,8,0,0,0,Pine Tree Lake,Mississippi River - Twin Cities,-92.95386928,45.10231359,11,11,1.363636364,1.727272727,B,Pine Tree Lake-1,172,6.157674419,12.42875158,4,4,411500,679500.0,2002.5,3101.0,8,0,122,112,0,439950.0,545000.0,,,2,0
417,19002500-01,2008,-3.4240061760000002,0.386699123,1.983333333,0.231660671,1,0,1,1,4,0,0,0,1,0,1,2,3,0,1,Keller Lake,Lower Minnesota River,-93.2520238,44.72650508,7,7,4.0,2.714285714,B,Keller Lake-1,585,0.563745705,2.154356206,0,0,285600,110250.0,2378.0,1170.0,0,0,549,555,0,224500.0,133000.0,3143.0,1305.5,8,0
471,19003100-01,2007,-3.393570364,0.563965621,1.6714285709999999,1.021634114,6,4,4,0,0,0,0,1,0,0,1,8,2,3,0,Orchard Lake,Lower Minnesota River,-93.31089353,44.7022537,14,14,1.857142857,2.5,C,Orchard Lake-1,289,0.751135531,0.784803151,0,0,413900,367200.0,2274.0,3263.0,0,0,226,200,0,252940.0,178750.0,4436.0,2711.0,2,0
682,27006700-01,2012,-3.271556083,0.64791539,2.85,0.212132034,2,0,0,0,0,0,0,0,0,0,2,0,0,0,0,Bryant Lake,Lower Minnesota River,-93.42816967,44.87666713,2,2,1.0,1.0,F,Bryant Lake-1,35,9.855428571000001,31.1429524,0,0,1125000,1556000.0,0.0,2390.0,0,0,14,0,0,699000.0,746250.0,17538.0,26471.0,0,0
708,27008800-01,2008,-3.52942166,0.6316381289999999,2.425,0.992815098,8,1,2,0,0,0,0,0,1,0,3,6,3,0,0,Minnetoga Lake,Lower Minnesota River,-93.44276833,44.9085599,11,12,1.454545455,2.0,B,Minnetoga Lake-1,334,0.896916168,3.5631013260000004,0,0,287850,155900.0,0.0,0.0,0,0,286,0,0,199511.0,122627.5,3315.5,1739.0,19,0
1065,82001400-01,2012,-4.422848629,,8.0,,1,0,0,0,0,0,0,0,0,0,1,0,0,0,0,Little Carnelian Lake,Lower St. Croix River,-92.79566883,45.11864663,1,1,1.0,1.0,F,Little Carnelian Lake-1,58,5.156206897,2.797730175,0,0,629500,455250.0,2852.0,3597.25,0,0,38,40,2,272500.0,485375.0,,,4,0
1357,82009002-01,2004,-2.603730493,0.527362976,1.408333333,0.76924796,1,4,7,0,0,0,0,1,0,0,0,5,4,3,0,Wilmes Lake,Mississippi River - Twin Cities,-92.91260488,44.92794439,12,12,2.5,2.833333333,C,Wilmes Lake-1,600,0.5638,1.686097856,0,0,321300,70050.0,0.0,0.0,0,0,600,0,0,184900.0,0.0,3333.0,1027.5,0,0
1237,82005202-01,2009,-3.071621041,0.35236718899999997,2.939285714,0.713153493,1,5,1,0,0,0,0,0,1,0,1,6,0,0,0,Jellums Lake,Lower St. Croix River,-92.83363926,45.22653925,7,7,2.0,1.857142857,B,Jellums Lake-1,29,10.69071429,12.42692564,0,0,310600,171000.0,1106.0,1700.0,2,28,0,0,0,185000.0,173825.0,294600.0,187625.0,0,0
1027,82000500-01,2008,-1.715687785,0.47804706,0.62875,0.250227183,0,1,0,7,0,0,0,0,0,0,0,2,5,0,1,Fahlstrom Pond,Lower St. Croix River,-92.83791256,44.94133254,8,8,3.75,3.0,F,Fahlstrom Pond-1,23,7.075652174,3.038581945,0,0,576400,468400.0,0.0,0.0,0,23,0,0,0,843866.0,864000.0,576400.0,468400.0,0,0
193,10005200-01,2004,-1.711877501,0.859250269,1.9363636359999998,1.7850897609999998,3,3,4,4,0,0,0,1,0,0,3,1,6,4,0,Reitz Lake,Lower Minnesota River,-93.74452179,44.83862568,14,14,2.642857143,2.785714286,C,Reitz Lake-1,108,4.283888889,5.502077235,0,0,341200,241000.0,1428.0,616.0,2,0,100,0,0,192500.0,241071.75,2137.0,1305.0,4,0
330,10022600-01,2009,-3.737039255,0.573728727,3.3428571430000003,0.85369269,4,9,1,0,0,0,0,0,1,0,3,11,0,0,0,Fireman's Clayhole Lake,Lower Minnesota River,-93.60344874,44.79128839,14,14,1.785714286,1.785714286,B,Fireman's Clayhole Lake-1,288,0.574583333,1.285314466,0,0,152100,216750.0,1082.0,1812.0,0,0,68,0,6,158000.0,291597.75,1779.0,4137.0,8,2
713,27008800-01,2014,-3.332308854,0.71618512,1.7181818180000001,0.6954396909999999,5,1,2,3,0,0,0,0,1,0,2,4,5,0,0,Minnetoga Lake,Lower Minnesota River,-93.44276833,44.9085599,11,11,2.272727273,2.272727273,B,Minnetoga Lake-1,335,0.9472835820000001,3.9121821210000003,0,0,227800,129800.0,1200.0,1680.0,0,0,285,0,0,210000.0,140000.0,3592.0,2145.0,12,0
1708,82033400-01,2012,-3.415080001,0.247760392,1.785,0.312889757,3,5,3,2,1,0,0,0,0,0,1,12,1,0,0,Kismet Lake,Lower St. Croix River,-92.89173259999998,45.09536417,14,14,2.5,2.0,F,Kismet Lake-1,28,13.88642857,20.07250547,0,0,323100,86000.0,1632.5,2122.0,4,0,26,20,0,305500.0,391125.0,,,0,0
1422,82010300-01,2010,-3.690380471,0.30649183,2.330769231,1.009442598,4,5,2,0,0,0,0,0,1,0,3,6,2,2,0,Olson Lake,Lower St. Croix River,-92.94542621,45.01857051,11,13,1.8181818180000002,2.230769231,B,Olson Lake-1,460,0.7489956329999999,0.604685096,0,0,299550,176900.0,1613.0,877.0,0,0,402,372,0,228500.0,177000.0,,,12,0
586,19044600-01,2007,-3.795675159,0.25133052100000003,3.315384615,1.031056217,13,0,0,0,0,0,0,0,0,1,13,0,0,0,0,Lac Lavon Lake,Lower Minnesota River,-93.24520003,44.72061708,13,13,1.0,1.0,A,Lac Lavon Lake-1,792,0.61021767,3.32116906,0,0,289850,178200.0,2277.5,1112.0,0,0,723,767,0,199800.0,111500.0,3078.0,1516.5,24,0
1059,82001400-01,2005,-4.403384268,0.323970734,6.8145,0.653257606,13,1,0,0,0,0,0,0,0,1,3,11,0,0,0,Little Carnelian Lake,Lower St. Croix River,-92.79566883,45.11864663,14,14,1.071428571,1.785714286,A,Little Carnelian Lake-1,59,10.25866667,27.76173337,0,0,635500,570100.0,0.0,0.0,0,0,59,0,0,417500.0,237700.0,5148.0,4480.0,0,0
1650,82015900-01,2012,-3.469873882,0.6784709309999999,1.871111111,0.9299614420000001,31,5,0,9,0,0,0,2,1,0,8,27,4,5,1,Forest Lake,Lower St. Croix River,-92.96654615,45.28220571,45,45,1.711111111,2.2,C,Forest Lake-1,2766,0.42611636399999997,0.714962401,0,0,139200,190300.0,981.0,1461.0,0,0,1608,1744,8,171875.0,164000.0,,,86,4
498,19003300-01,2014,-3.2622483019999997,0.314833977,1.464285714,0.38751107799999995,3,11,0,0,0,0,0,0,1,0,1,13,0,0,0,Earley Lake,Lower Minnesota River,-93.29337284,44.73975323,14,14,1.785714286,1.928571429,B,Earley Lake-1,320,0.462711864,1.306877713,0,0,266200,53825.0,2494.0,848.0,0,0,252,273,4,266000.0,86557.0,3334.0,768.0,14,0
451,19002900-01,2009,-3.903482776,0.443173604,3.476923077,1.026445198,12,2,0,0,0,0,0,0,0,1,3,11,0,0,0,Lee Lake,Lower Minnesota River,-93.28746428,44.71229881,14,14,1.142857143,1.785714286,A,Lee Lake-1,266,1.066015326,2.5670778480000003,0,0,218100,187300.0,1968.0,1542.5,0,0,195,199,0,229543.0,135117.0,2677.0,2604.0,2,0
476,19003100-01,2012,-3.761448712,0.645912212,3.1538461539999996,0.9315000309999999,9,4,0,0,0,0,0,0,1,0,5,8,0,0,0,Orchard Lake,Lower Minnesota River,-93.31089353,44.7022537,13,13,1.307692308,1.615384615,B,Orchard Lake-1,277,0.7711191340000001,0.8372672790000001,0,0,325800,217350.0,2342.0,2402.0,0,0,213,203,2,252940.0,189400.0,4785.0,3538.0,6,0
935,70002600-01,2012,-3.898208211,0.8731919640000001,4.1428571430000005,1.701453806,13,1,0,0,0,0,0,0,0,1,2,12,0,0,0,Lower Prior Lake,Lower Minnesota River,-93.41536363,44.73480944,14,14,1.071428571,1.857142857,A,Lower Prior Lake-1,1257,0.5654574379999999,2.329403433,0,0,232700,260900.0,1244.0,538.0,2,0,1023,0,0,223755.0,180500.0,,,0,0
697,27007600-01,2006,-2.219141815,0.7464000759999999,1.161538462,0.711264674,0,0,0,0,0,0,1,0,0,0,0,0,0,0,0,Red Rock Lake,Lower Minnesota River,-93.47638386,44.84796469,0,0,,,D,Red Rock Lake-1,690,,,0,0,439600,282675.0,0.0,0.0,0,0,625,0,0,290000.0,271000.0,5368.0,3739.0,35,0
905,62007200-01,2009,-2.889518751,0.441932984,0.9678571429999999,0.44445608200000003,3,1,0,10,0,0,0,1,0,0,2,8,2,2,0,Karth Lake,Mississippi River - Twin Cities,-93.149834,45.07400149,14,14,3.214285714,2.285714286,C,Karth Lake-1,817,0.41882208600000004,1.071560018,0,0,284200,183150.0,1877.0,1112.5,0,815,0,783,0,185900.0,156960.0,3270.0,2342.0,14,2
524,19008000-01,2010,-3.229936043,0.39509621899999997,1.4818181819999998,0.204049905,7,3,0,0,0,0,0,0,1,0,7,4,0,0,0,Rogers Lake,Mississippi River - Twin Cities,-93.13915635,44.87116478,10,11,1.3,1.363636364,B,Rogers Lake-1,309,1.910687285,4.516611128,0,0,278100,276650.0,2064.0,2686.0,0,0,213,197,6,276250.0,200150.0,2793.0,1286.0,2,0
858,27104501-01,2006,-2.7639276930000003,0.173898091,1.12,0.294957624,0,0,0,0,5,0,0,1,0,0,0,0,0,3,2,Normandale Lake,Lower Minnesota River,-93.35252741,44.84884412,5,5,5.0,4.4,C,Normandale Lake-1,385,,,0,0,381100,473800.0,0.0,0.0,0,0,256,0,0,341200.0,264861.5,4923.0,5443.0,13,0
770,27013700-01,2010,,,4.25,,1,0,0,0,0,0,0,0,0,0,1,0,0,0,0,Christmas Lake,Mississippi River - Twin Cities,-93.54437165,44.89464656,1,1,1.0,1.0,F,Christmas Lake-1,629,1.025930048,1.026271296,0,0,679700,885000.0,1914.0,2853.0,0,0,365,0,0,387500.0,516250.0,9365.0,12078.0,16,0
228,10006900-01,2011,-1.81496096,0.371594288,0.3,0.138675049,0,0,0,14,0,1,0,0,0,0,0,0,2,11,1,Benton Lake,Lower Minnesota River,-93.78461955,44.77483166,14,14,4.0,3.928571429,F,Benton Lake-1,512,0.473215686,0.842109717,0,0,162450,60775.0,1249.0,484.5,0,0,400,0,12,160000.0,125900.0,2270.0,927.5,16,0
1225,82004900-01,2007,-4.01600223,0.442799461,4.332571429,0.7863463740000001,5,2,0,0,0,0,0,0,0,1,0,7,0,0,0,Big Carnelian Lake,Lower St. Croix River,-92.80741591,45.13305739,7,7,1.285714286,2.0,A,Big Carnelian Lake-1,607,,,0,0,328700,485800.0,0.0,0.0,2,597,0,0,0,132500.0,223000.0,,,4,0
804,27018401-01,2005,-2.761296285,0.361687263,0.834615385,0.220802731,0,0,0,0,0,0,1,1,0,0,0,0,0,0,0,Whaletail Lake,South Fork Crow River,-93.72754301,44.93568243,0,0,,,D,Whaletail Lake-1,46,,,0,0,276000,441375.0,0.0,0.0,2,0,33,0,0,289000.0,218750.0,3008.0,4578.0,0,0
1149,82003100-01,2004,-3.730122077,0.32381984,3.4401428569999997,0.7405931020000001,0,3,2,1,0,0,0,0,0,1,2,3,2,0,0,Terrapin Lake,Lower St. Croix River,-92.82016292,45.18227666,6,7,2.666666667,2.0,A,Terrapin Lake-1,33,32.8675,45.76812493,0,0,314400,259400.0,0.0,0.0,2,0,33,0,0,,,484.0,0.0,0,0
632,27003501-01,2007,-3.0870696310000003,0.38032720600000003,1.066666667,0.26367368,9,4,0,0,0,0,0,1,0,0,8,6,0,0,0,Sweeney Lake,Mississippi River - Twin Cities,-93.34160616,44.99052075,13,14,1.307692308,1.428571429,C,Sweeney Lake-1,309,0.901488673,1.779543495,0,0,318000,180500.0,0.0,0.0,0,0,272,0,0,172500.0,166000.0,4636.0,2813.0,8,0
71,02065400-01,2007,-4.25933238,0.371618756,2.25,0.5823151289999999,12,0,0,0,0,0,0,0,0,1,4,8,0,0,0,Cenaiko Lake,Mississippi River - Twin Cities,-93.30035632,45.14036824,12,12,1.0,1.6666666669999999,A,Cenaiko Lake-1,1740,0.999931035,4.625859943,0,0,223900,126700.0,662.5,1176.0,0,0,1406,0,0,195500.0,148500.0,2357.0,1651.75,52,2
1207,82004400-01,2010,,,4.615714286,1.083449078,3,4,0,0,0,0,0,0,0,0,1,6,0,0,0,West Boot Lake,Lower St. Croix River,-92.83822036,45.163160299999994,7,7,1.571428571,1.857142857,F,West Boot Lake-1,28,12.16571429,14.846817199999998,4,4,505000,173500.0,2444.0,1665.0,0,0,26,20,2,53500.0,542225.0,,,2,0
1733,82048200-01,2005,-1.965855023,0.25760343399999996,0.9833333329999999,0.337144875,0,0,0,0,0,0,0,1,0,0,2,1,2,0,0,Mergens Pond,Lower St. Croix River,-92.82652345,44.96768212,0,5,,2.0,C,Mergens Pond-1,50,5.6168,10.68548966,0,0,349400,177175.0,0.0,0.0,0,0,50,0,0,131500.0,121000.0,2221.0,1077.5,0,0
1185,82003600-01,2012,-3.1065846880000003,0.532345931,,,0,0,1,6,0,0,0,0,0,0,0,5,2,0,0,Turtle Lake,Lower St. Croix River,-92.8674582,45.17814441,7,7,3.857142857,2.285714286,F,Turtle Lake-1,18,19.60333333,12.95066476,0,0,218600,247850.0,0.0,0.0,12,0,2,2,0,,,,,0,0
1136,82002602-01,2005,,,0.8927142859999999,0.40719926100000003,0,0,0,4,3,0,0,0,0,0,0,2,1,3,1,Mud Lake,Lower St. Croix River,-92.87389184,45.18272507,7,7,4.428571429,3.428571429,F,Mud Lake-1,15,38.5925,14.08575344,0,0,314200,335000.0,0.0,0.0,10,0,15,0,0,,,172.0,1596.0,0,0
29,02002200-01,2006,-3.2243024339999997,0.498268854,1.4923076919999998,0.400960386,6,6,1,0,0,0,0,1,0,0,2,10,2,0,0,Island Lake,Lower St. Croix River,-93.09488494,45.36691861,13,14,1.615384615,2.0,C,Island Lake-1,48,8.445833333,6.6529378679999995,0,0,66550,261625.0,0.0,1308.0,0,0,16,0,0,315868.0,128064.0,1837.5,1613.5,0,0
63,02058500-01,2010,-3.5893598389999997,0.32853759,2.8,0.529150262,0,0,0,10,0,0,0,0,1,0,0,8,2,0,0,Lochness Lake,Mississippi River - Twin Cities,-93.15409272,45.17252825,10,10,4.0,2.2,B,Lochness Lake-1,30,,,0,0,272700,101400.0,1256.0,2529.0,0,0,20,0,0,425000.0,1193000.0,3879.0,1627.0,2,0
347,13004200-01,2006,-2.4350304769999997,0.529686867,1.523857143,0.49775677799999996,0,0,4,3,0,0,1,0,0,0,0,3,4,0,0,Birch Lake,Lower St. Croix River,-92.89764541,45.30070147,7,7,3.428571429,2.5714285709999998,D,Birch Lake-1,9,16.0025,2.338509141,0,0,330400,216200.0,1164.0,1873.0,0,0,7,0,0,168300.0,59800.0,2656.0,2453.0,0,0
1541,82012300-01,2007,-3.314882518,0.531516123,1.9748571430000001,0.9454000440000001,6,12,6,11,0,0,1,0,3,0,4,14,9,8,0,Bass Lake,Lower St. Croix River,-92.91784653,45.09714182,35,35,2.628571429,2.6,B,Bass Lake-1,94,,,0,0,452100,86800.0,0.0,0.0,0,94,0,0,0,274000.0,270000.0,,,4,0
1321,82007700-01,2011,-2.213511719,0.21613701899999999,1.370714286,0.59506256,0,1,3,10,0,0,0,1,0,0,0,3,11,0,0,Goggins Lake,Lower St. Croix River,-92.89283249,45.13303508,14,14,3.642857143,2.785714286,C,Goggins Lake-1,32,12.321875,11.98702213,0,0,340300,134025.0,1526.0,1311.75,4,0,30,26,0,200000.0,252875.0,,,0,0
947,70005000-01,2014,-3.310290198,0.49636451,1.82,0.913844139,9,0,0,0,0,0,0,1,0,0,1,3,6,0,0,McMahon Lake,Lower Minnesota River,-93.41373865,44.63309631,9,10,1.0,2.5,C,McMahon Lake-1,55,6.400545455,6.704035661,0,0,257000,345900.0,1134.0,1612.0,0,0,33,0,0,279000.0,371695.0,,,4,0
344,13002300-01,2014,-2.4122484,0.48543867799999996,0.9564,0.364175782,0,3,7,13,1,0,1,0,0,0,0,5,11,7,1,Moody Lake,Lower St. Croix River,-92.86717247,45.30161606,24,24,3.5,3.166666667,D,Moody Lake-1,14,1.7157142859999999,0.897378355,0,0,13000,219300.0,0.0,1080.0,0,0,8,6,0,182500.0,125000.0,,,0,0
709,27008800-01,2010,-3.570151472,0.41042427299999995,2.285714286,0.941240706,9,1,1,3,0,0,0,0,1,0,4,8,2,0,0,Minnetoga Lake,Lower Minnesota River,-93.44276833,44.9085599,14,14,1.857142857,1.857142857,B,Minnetoga Lake-1,328,0.938902439,3.9424525519999998,0,0,268600,141600.0,1223.5,1682.0,0,0,285,0,0,200000.0,125100.0,3302.0,1709.0,10,0
1013,82000200-01,2010,-2.305133396,0.626897364,0.877777778,0.528625051,0,0,0,9,0,0,1,0,0,0,0,5,2,0,1,O'Connors Lake,Lower St. Croix River,-92.78863940000001,44.83029434,9,8,4.0,2.625,D,O'Connors Lake-1,10,29.962,10.00791109,0,0,447100,344500.0,0.0,482.25,10,0,10,2,0,300000.0,0.0,,,0,0
1311,82007600-01,2009,,,1.4588571430000001,1.080689198,0,2,2,3,0,0,0,0,0,0,0,3,3,1,0,Barker Lake,Lower St. Croix River,-92.89930946,45.18460321,7,7,3.142857143,2.714285714,F,Barker Lake-1,8,85.03,10.76367701,0,0,805950,277425.0,0.0,1182.0,6,8,0,0,0,,,258900.0,185300.0,0,0
841,27066100-01,2014,-2.84272267,0.586058029,0.7923076920000001,0.08623165,0,0,0,5,8,0,0,0,0,0,0,1,4,2,6,South Oak Lake,Mississippi River - Twin Cities,-93.37042248,44.93426779,13,13,4.615384615,4.0,F,South Oak Lake-1,206,1.065533981,2.258689768,0,0,157800,52400.0,768.0,1152.0,0,0,132,0,0,157800.0,131445.0,2376.0,1355.5,8,0
512,19005000-01,2011,,,2.5333333330000003,1.096965512,2,0,1,0,0,0,0,0,0,0,0,2,0,1,0,Sunfish Lake,Mississippi River - Twin Cities,-93.09818273,44.87580726,3,3,1.6666666669999999,2.666666667,F,Sunfish Lake-1,181,3.134143646,2.71425127,0,0,676700,665500.0,3439.0,4728.0,0,0,158,0,0,535700.0,550000.0,6549.0,6299.5,0,0
739,27010400-01,2013,-3.188082275,0.459246455,1.6125,0.7249062909999999,12,9,1,0,0,0,0,2,0,0,6,11,5,2,0,Medicine Lake,Mississippi River - Twin Cities,-93.4232217,44.999438700000006,22,24,1.5,2.125,C,Medicine Lake-1,989,0.472118731,0.893182922,0,0,205000,350950.0,0.0,1216.0,0,0,619,0,0,175000.0,200918.0,3861.5,5082.5,34,0
352,13005400-01,2008,-3.48574152,0.41561602299999995,1.7083333330000001,0.227469612,3,7,1,0,0,0,0,1,0,0,2,9,1,0,0,Little Comfort Lake,Lower St. Croix River,-92.93695344,45.31351351,11,12,1.8181818180000002,1.9166666669999999,C,Little Comfort Lake-1,4,2.53,0.011547005,0,0,380350,11500.0,0.0,0.0,0,4,0,0,0,31000.0,0.0,380350.0,11500.0,0,0
513,19005000-01,2012,-2.44184716,,3.383333333,2.636443311,3,0,0,1,0,0,0,0,0,0,2,1,0,1,0,Sunfish Lake,Mississippi River - Twin Cities,-93.09818273,44.87580726,4,4,1.75,2.0,F,Sunfish Lake-1,179,3.169273743,2.719326385,0,0,570100,536900.0,3451.0,4728.0,0,0,156,125,4,444300.0,580100.0,7211.0,7090.0,4,0
175,10001900-01,2012,-3.147549232,0.532193342,1.865384615,1.102154068,1,7,5,1,0,0,0,1,0,0,4,7,1,2,0,Bavaria Lake,Lower Minnesota River,-93.63778927,44.83812233,14,14,2.4285714290000002,2.0714285709999998,C,Bavaria Lake-1,465,1.174666667,2.29675801,0,0,280100,415050.0,1810.0,2724.0,0,0,239,0,0,348000.0,378757.5,5276.0,6134.5,35,34
88,10000200-02,2008,-3.352815547,0.040417102,1.25,0.070710678,0,1,1,0,0,0,0,0,0,0,0,0,2,0,0,Riley Lake,Lower Minnesota River,-93.52393956,44.83937512,2,2,2.5,3.0,F,Riley Lake-2,309,0.707216829,3.060548083,0,0,329200,274200.0,1474.0,1937.0,0,0,106,0,0,294286.0,339667.5,3213.0,5325.0,24,20
1300,82007200-01,2009,-2.413265216,0.244464193,0.913333333,0.309069263,4,9,2,0,0,0,1,0,0,0,5,7,3,0,0,White Rock Lake,Mississippi River - Twin Cities,-92.89308991,45.22389054,15,15,1.8666666669999998,1.8666666669999998,D,White Rock Lake-1,59,8.181754386,11.54763398,0,0,294700,282200.0,1205.0,1606.0,0,57,0,0,0,250000.0,353000.0,296800.0,144500.0,0,0
66,02058500-01,2013,-3.486558033,0.478671597,2.027777778,0.445190346,0,0,0,9,0,0,0,1,0,0,0,6,3,0,0,Lochness Lake,Mississippi River - Twin Cities,-93.15409272,45.17252825,9,9,4.0,2.333333333,C,Lochness Lake-1,30,10.96733333,13.09183239,0,0,240100,94400.0,1256.0,2388.0,0,0,20,0,0,425000.0,1193000.0,3772.0,1461.0,0,0
496,19003300-01,2012,-3.0154048010000003,0.487490475,1.9166666669999999,0.404145188,0,1,0,7,1,0,0,0,1,0,0,2,7,2,1,Earley Lake,Lower Minnesota River,-93.29337284,44.73975323,9,12,3.888888889,3.166666667,B,Earley Lake-1,322,0.46080808100000004,1.302661006,0,0,241350,44100.0,2494.0,839.75,0,0,251,273,0,262000.0,90700.0,3171.0,723.0,3,0
57,02013000-01,2011,-3.4547272860000002,0.17191884899999998,1.222,0.220839308,0,0,4,3,0,0,0,0,1,0,0,2,2,3,0,Pickerel Lake,Rum River,-93.44717428,45.33765804,7,7,3.428571429,3.142857143,B,Pickerel Lake-1,67,10.91597015,11.28251195,0,0,237300,233000.0,1224.0,1776.0,0,0,37,0,0,159500.0,187000.0,2203.0,3496.0,2,0
1229,82004900-01,2012,-3.9900439039999998,0.466461045,4.716666667,1.02926511,5,1,0,0,0,0,0,0,0,1,4,2,0,0,0,Big Carnelian Lake,Lower St. Croix River,-92.80741591,45.13305739,6,6,1.166666667,1.333333333,A,Big Carnelian Lake-1,596,1.256644295,4.009966175,2,2,217000,383100.0,750.0,1508.0,2,0,378,354,8,161431.5,391440.0,,,16,0
769,27012900-01,2014,-3.575550769,,2.2,,0,1,0,0,0,0,0,0,0,0,0,1,0,0,0,DuBay Lake,Mississippi River - Twin Cities,-93.48363992,45.17050151,1,1,2.0,2.0,F,DuBay Lake-1,14,26.99571429,16.94687705,0,0,211600,198600.0,0.0,1953.0,4,0,10,0,0,794500.0,411000.0,4667.0,3618.0,0,0
52,02008100-01,2004,-2.1155101480000003,0.371684771,0.583333333,0.17224014199999998,0,0,0,6,0,0,0,0,0,0,0,0,1,5,0,Hart Lake,Mississippi River - Twin Cities,-93.23223722,45.03684683,6,6,4.0,3.833333333,F,Hart Lake-1,600,0.373005465,0.8823631009999999,0,0,164216,28809.0,0.0,0.0,0,2,529,2,0,138900.0,74500.0,1583.0,598.0,21,0
509,19004700-01,2010,-2.9462623,0.385533745,1.2,0.565685425,0,0,1,1,0,0,0,0,0,0,0,1,0,1,0,Hornbean Lake,Mississippi River - Twin Cities,-93.10364718,44.86312167,2,2,3.5,3.0,F,Hornbean Lake-1,121,2.747767857,5.860604881,0,0,397300,421500.0,3320.0,2628.0,1,0,93,93,0,229315.0,201885.0,4041.0,3265.0,0,0
1674,82030500-01,2010,-3.087456078,0.295418905,1.95,0.403236903,0,2,7,5,0,0,0,1,0,0,0,10,4,0,0,Jackson WMA,Lower St. Croix River,-92.84686699,45.05652899,14,14,3.214285714,2.285714286,C,Jackson WMA-1,226,1.2126548670000001,2.623359006,0,0,219200,44475.0,1092.0,693.75,0,0,176,184,0,162500.0,90775.0,,,0,0
1631,82015300-01,2004,-3.887841663,0.221605923,3.64,0.619677335,2,13,0,0,0,0,0,0,0,1,0,15,0,0,0,Sunset Lake,Mississippi River - Twin Cities,-92.94157024,45.13527125,15,15,1.8666666669999998,2.0,A,Sunset Lake-1,224,3.856923077,12.53632841,0,0,278750,343800.0,0.0,0.0,2,0,224,0,0,183705.0,106875.0,2338.0,2987.0,0,0
1606,82013700-01,2012,-2.57232899,0.8257776790000001,1.491425,0.932873528,6,6,12,18,0,1,0,2,0,0,4,9,26,2,1,Fish Lake,Mississippi River - Twin Cities,-92.97796745,45.12242547,42,42,3.0,2.690476191,C,Fish Lake-2,36,8.236666667,6.190618709,0,0,409700,320800.0,2497.0,1217.0,0,0,26,30,0,185550.0,215100.0,,,0,0
1284,82006500-01,2011,-2.9509628360000004,0.5422195360000001,1.785714286,0.36022479799999996,0,5,2,0,0,0,0,1,0,0,0,7,0,0,0,Hay Lake,Lower St. Croix River,-92.81398535,45.23381325,7,7,2.285714286,2.0,C,Hay Lake-1,136,4.6861764710000005,4.863549087,0,0,277700,211200.0,1267.5,1917.0,16,0,112,84,0,245000.0,305000.0,,,0,0
758,27011601-01,2009,-1.1825518999999998,0.630986601,1.175,0.604716312,0,2,7,3,0,1,0,0,0,0,0,2,7,3,0,Rice Elm Lake,Mississippi River - Twin Cities,-93.46614319,45.11672618,12,12,3.083333333,3.083333333,F,Rice Elm Lake-1,2158,0.502493049,1.3991466019999999,0,0,263600,155700.0,1388.0,953.0,0,0,1948,0,0,173547.5,120000.0,3334.0,1776.0,66,0
866,62000100-01,2006,-3.2500949880000003,0.5550476010000001,2.608578947,0.8833165609999999,4,2,7,5,1,0,0,1,1,0,5,4,4,6,0,Silver Lake,Lower St. Croix River,-92.98615998,45.02818484,19,19,2.842105263,2.578947368,C,Silver Lake-1,869,0.43661157,0.676959568,0,0,215700,84300.0,1284.0,667.5,0,2,761,580,4,152000.0,95910.25,2157.0,745.5,32,0
236,10008000-01,2009,-1.748968022,0.266586383,1.6166666669999998,2.637738931,0,0,3,3,0,1,0,0,0,0,0,4,2,0,0,Rutz Lake,Lower Minnesota River,-93.85951756,44.87183629,6,6,3.5,2.333333333,F,Rutz Lake-1,26,16.43615385,28.50499635,1,1,292500,293650.0,0.0,1942.5,2,0,9,0,0,51500.0,83000.0,2185.5,3326.0,0,0
1163,82003300-01,2011,,,6.2625,0.48088460200000005,6,2,0,0,0,0,0,0,0,0,3,5,0,0,0,Mays Lake,Lower St. Croix River,-92.82044805,45.16809879,8,8,1.25,1.625,F,Mays Lake-1,8,42.6075,9.780012781,0,0,1247700,1580325.0,760.0,1631.0,0,0,0,4,0,,,,,0,0
21,02000900-01,2010,-2.7862351910000003,0.7077545740000001,0.9436363640000001,0.502539008,1,2,6,2,0,0,1,0,0,0,1,3,3,4,0,Reshanau Lake,Mississippi River - Twin Cities,-93.09866122,45.15292958,11,11,2.8181818180000002,2.9090909089999997,D,Reshanau Lake-1,812,,,0,0,247650,159100.0,1404.0,1042.0,0,0,634,0,0,288250.0,172600.0,3867.0,2220.5,12,0
1684,82030800-01,2013,-2.720787388,0.22440527300000002,,,0,0,0,5,1,0,0,0,0,0,0,2,1,0,3,Brick Pond,Lower St. Croix River,-92.81843998,45.04299815,6,6,4.166666667,3.666666667,F,Brick Pond-1,260,0.859307692,1.8856414119999998,0,0,216500,75400.0,1386.0,1670.0,0,0,174,186,0,200000.0,109900.0,,,0,0
455,19002900-01,2013,-3.776591603,0.35097797700000005,2.190909091,0.557592226,2,5,3,1,0,0,0,0,1,0,2,4,5,0,0,Lee Lake,Lower Minnesota River,-93.28746428,44.71229881,11,11,2.272727273,2.272727273,B,Lee Lake-1,263,1.059961977,2.558199435,0,0,178700,170400.0,2016.0,1489.0,0,0,187,201,0,231500.0,162000.0,2619.0,2546.0,6,0
1327,82008000-01,2007,-4.325294362,0.168352002,4.536363636,0.338445645,11,0,0,0,0,0,0,0,0,1,11,0,0,0,0,Halfbreed Lake,Lower St. Croix River,-92.89937532,45.25122379,11,11,1.0,1.0,A,Halfbreed Lake-1,292,,,0,0,264100,279075.0,0.0,0.0,1,289,0,0,0,135500.0,118150.0,,,2,0
1349,82008900-01,2007,-1.8918235369999998,0.307803706,0.4,0.09198662099999999,0,0,0,14,0,0,1,0,0,0,0,0,0,14,0,Markgraf Lake,Mississippi River - Twin Cities,-92.89723902,44.94046314,14,14,4.0,4.0,D,Markgraf Lake-1,1281,,,0,0,216800,111300.0,0.0,0.0,0,1234,0,0,0,175500.0,98975.0,,,18,0
1580,82013300-01,2008,-3.7611279000000004,0.23103884800000002,2.364285714,0.812978515,9,5,0,0,0,0,0,0,0,1,8,6,0,0,0,Sunnybrook Lake,Lower St. Croix River,-92.91073482,45.05049226,14,14,1.357142857,1.428571429,A,Sunnybrook Lake-1,116,2.904035088,5.749163805,0,0,349100,373900.0,0.0,0.0,0,116,0,0,0,215000.0,160000.0,349100.0,370475.0,0,0
1661,82016300-01,2006,-2.9694626489999996,0.6642399210000001,1.9076923080000001,0.272217862,0,0,0,0,0,0,0,1,0,0,0,0,0,0,0,Clear Lake,Mississippi River - Twin Cities,-93.00000905,45.26003767,0,0,,,C,Clear Lake-1,975,1.855853659,19.67241984,0,0,222700,214600.0,1104.0,1633.0,0,0,756,0,0,160000.0,109000.0,1636.0,1688.0,14,0
54,02008100-01,2006,-1.914406634,0.229207259,0.45,0.215472902,0,0,0,8,0,1,0,0,0,0,0,1,2,5,0,Hart Lake,Mississippi River - Twin Cities,-93.23223722,45.03684683,8,8,4.0,3.5,F,Hart Lake-1,606,0.373005465,0.8823631009999999,0,0,190100,33450.0,938.0,1152.0,0,0,504,0,2,155000.0,107900.0,2086.0,566.0,36,0
120,10000900-02,2010,-3.975865795,0.27914413,2.369230769,1.084269812,11,2,0,0,0,0,0,0,1,0,1,8,3,1,0,Minnewashta Lake,Mississippi River - Twin Cities,-93.61318955,44.87105254,13,13,1.153846154,2.307692308,B,Minnewashta Lake-1,223,1.22529148,5.521425001,0,0,439500,369400.0,1686.0,1622.0,0,0,0,0,0,375000.0,425750.0,6258.0,5710.0,4,12
354,13005400-01,2010,-3.686625673,0.29382675399999997,1.8083333330000002,0.479504163,1,7,4,0,0,0,0,0,1,0,2,7,3,0,0,Little Comfort Lake,Lower St. Croix River,-92.93695344,45.31351351,12,12,2.25,2.083333333,B,Little Comfort Lake-1,4,2.54,0.011547005,0,0,298350,6100.0,2509.5,51.0,0,0,4,4,0,31000.0,0.0,,,0,0
535,19008200-01,2013,-3.417856113,0.678250611,1.5666666669999998,0.47187569,0,0,0,7,0,0,0,0,1,0,0,4,3,0,0,Lemay Lake,Lower Minnesota River,-93.15743903,44.87293228,7,7,4.0,2.4285714290000002,B,Lemay Lake-1,96,2.1090625,3.185808029,0,0,211900,172600.0,1404.0,2049.75,0,0,55,55,0,231000.0,258000.0,2726.0,1529.5,0,0
838,27066100-01,2011,-2.96412461,0.448776406,0.8807692309999999,0.307908578,0,0,0,11,3,0,0,1,0,0,0,3,6,3,1,South Oak Lake,Mississippi River - Twin Cities,-93.37042248,44.93426779,14,13,4.214285714,3.1538461539999996,C,South Oak Lake-1,207,1.121062802,2.390285117,0,0,185700,52000.0,768.0,1152.0,0,0,136,0,0,155900.0,128860.0,2521.0,1175.25,6,0
1084,82001700-01,2007,-3.749544132,0.34677721799999994,1.240857143,0.284278284,0,2,1,4,0,0,0,0,1,0,2,3,2,0,0,Carol Lake,Lower St. Croix River,-92.84101343,45.09783873,7,7,3.285714286,2.0,B,Carol Lake-1,19,,,0,0,563900,457500.0,0.0,0.0,4,19,0,0,0,340000.0,0.0,,,0,0
65,02058500-01,2012,-2.976700585,0.79956542,1.6,0.286356421,0,0,0,11,0,0,0,1,0,0,0,4,4,3,0,Lochness Lake,Mississippi River - Twin Cities,-93.15409272,45.17252825,11,11,4.0,2.9090909089999997,C,Lochness Lake-1,30,10.96733333,13.09183239,0,0,251700,88300.0,1256.0,2529.0,0,0,20,0,0,425000.0,1193000.0,3703.0,1480.0,0,0
603,19045100-01,2014,-3.11922289,0.34047615200000003,2.169230769,0.278042609,2,2,3,2,4,0,0,0,1,0,1,2,6,0,4,Sunset Pond,Lower Minnesota River,-93.32441925,44.75482629,13,13,3.307692308,3.307692308,B,Sunset Pond-1,800,0.6374462710000001,2.548013483,0,0,236200,65100.0,2022.0,802.5,0,0,680,610,0,214750.0,108000.0,3006.0,805.25,22,0
1478,82011000-01,2013,-1.7676827419999999,0.258259502,0.387142857,0.288369802,0,0,1,6,0,1,0,0,0,0,0,0,3,4,0,Downs Lake,Lower St. Croix River,-92.86598768,44.98198473,7,7,3.857142857,3.571428571,F,Downs Lake-1,166,2.651325301,4.650884509,0,0,310900,110000.0,1828.0,1075.0,2,0,144,138,2,255000.0,191768.5,,,0,0
77,10000200-01,2004,-3.204302937,0.473781795,2.364285714,1.8261380619999998,1,6,5,1,0,0,0,1,0,0,1,0,6,3,3,Riley Lake,Lower Minnesota River,-93.51695191,44.83469027,13,13,2.461538462,3.5384615389999996,C,Riley Lake-1,68,3.707142857,1.448812322,0,0,349100,324100.0,0.0,0.0,0,0,55,0,0,183900.0,140316.0,5574.0,3075.0,2,0
1424,82010300-01,2012,-3.8958294319999998,0.40517529999999996,2.8692307689999996,1.2510892690000002,8,6,0,0,0,0,0,0,1,0,7,4,3,0,0,Olson Lake,Lower St. Croix River,-92.94542621,45.01857051,14,14,1.428571429,1.714285714,B,Olson Lake-1,456,0.755154185,0.606144657,0,0,257050,146225.0,1620.5,870.25,0,0,398,372,0,226000.0,186000.0,,,20,0
1103,82001900-01,2009,-2.8146619389999996,0.25820648,1.7764285709999998,0.63491518,0,2,1,4,0,0,0,1,0,0,0,3,4,0,0,South Twin Lake,Lower St. Croix River,-92.84708907,45.07817668,7,7,3.285714286,2.5714285709999998,C,South Twin Lake-1,113,3.797168142,10.229852099999999,0,0,211500,257850.0,0.0,1748.0,0,113,0,0,0,310000.0,228440.0,211500.0,284450.0,0,0
411,19002400-01,2013,-3.3909603180000003,0.301960085,1.283333333,1.0373334109999999,0,7,2,0,0,0,0,0,1,0,1,7,2,2,0,Wood Lake,Lower Minnesota River,-93.26586040000001,44.74111827,9,12,2.222222222,2.416666667,B,Wood Lake-1,756,0.301402116,1.11055139,0,0,121200,58350.0,1522.0,394.0,0,0,622,729,2,145000.0,70800.0,1543.5,760.0,11,0
809,27019900-01,2006,-2.540806668,0.586865848,1.6230769230000002,0.801201022,2,2,9,0,0,0,0,1,0,0,1,6,5,1,0,Hafften Lake,North Fork Crow River,-93.67777499,45.09449117,13,13,2.538461539,2.461538462,C,Hafften Lake-1,56,,,0,0,512000,320500.0,0.0,0.0,0,0,44,0,0,135450.0,231738.25,5354.0,3938.0,2,0
621,27002802-01,2006,-2.024986312,0.394681842,0.542857143,0.273057576,0,0,0,14,0,1,0,0,0,0,0,0,8,5,1,Cornelia Lake,Lower Minnesota River,-93.33952406,44.88277422,14,14,4.0,3.5,F,Cornelia Lake-1,623,,,0,0,381900,183300.0,0.0,0.0,0,0,538,0,0,235500.0,229000.0,4286.0,2012.0,18,0
553,19009500-01,2012,-2.4092320380000003,0.27931331,0.7,0.173205081,0,1,0,2,0,0,0,0,0,0,0,2,1,0,0,Seidl Lake,Mississippi River - Twin Cities,-93.05329582,44.88348937,3,3,3.333333333,2.333333333,F,Seidl Lake-1,650,0.34747457600000003,1.052251315,0,0,170650,80625.0,1890.0,845.75,0,0,602,597,10,219655.0,93000.0,2311.0,1043.0,12,0
894,62005800-01,2010,-2.78301479,0.261222117,0.8125,0.275619138,0,6,4,1,0,0,0,1,0,0,0,3,7,1,0,Little Johanna Lake,Mississippi River - Twin Cities,-93.17263308,45.03504895,11,11,2.5454545459999998,2.8181818180000002,C,Little Johanna Lake-1,259,1.3982625480000002,5.657341912000001,0,0,291900,104700.0,1777.0,1105.0,0,0,202,221,20,201300.0,130100.0,3658.0,1218.0,8,0
1281,82006500-01,2008,-3.0542779660000003,0.263920273,1.9485,0.431831832,1,9,4,0,0,0,0,1,0,0,5,9,0,0,0,Hay Lake,Lower St. Croix River,-92.81398535,45.23381325,14,14,2.214285714,1.642857143,C,Hay Lake-1,72,4.603428571,4.834395451000001,0,0,304950,229250.0,0.0,0.0,6,72,0,0,0,239000.0,100500.0,291600.0,325575.0,0,0
1636,82015300-01,2009,-4.160968629,0.29133732100000004,2.9857142860000003,0.47409060799999997,1,0,0,2,0,0,0,0,0,1,3,4,0,0,0,Sunset Lake,Mississippi River - Twin Cities,-92.94157024,45.13527125,3,7,3.0,1.571428571,A,Sunset Lake-1,224,2.616866359,4.0955775999999995,0,0,300600,369500.0,1334.0,1798.25,2,217,0,0,0,260000.0,210000.0,310100.0,369150.0,0,0
1191,82003800-01,2007,,,1.480285714,0.887336035,0,1,0,5,1,0,1,0,0,0,0,2,3,2,0,Maple Marsh Lake,Lower St. Croix River,-92.88669874,45.17440477,7,7,3.857142857,3.0,D,Maple Marsh Lake-1,6,,,0,0,706500,933200.0,0.0,0.0,6,6,0,0,0,,,,,0,0
925,70002100-01,2006,-2.969405938,0.408327194,1.44,0.7214183559999999,0,0,7,1,1,0,0,1,0,0,0,7,1,0,0,Markley Lake,Lower Minnesota River,-93.39856519,44.7102066,9,8,3.333333333,2.125,C,Markley Lake-1,204,2.265980392,7.034860172999999,0,0,280300,91600.0,1269.0,380.0,0,0,160,0,0,187350.0,110900.0,,,0,0
415,19002500-01,2006,-2.6511551030000002,0.628073442,1.264814815,0.70789705,1,1,1,10,1,0,1,0,0,0,1,3,5,4,1,Keller Lake,Lower Minnesota River,-93.2520238,44.72650508,14,14,3.642857143,3.071428571,D,Keller Lake-1,585,0.563745705,2.154356206,0,0,289700,113750.0,2338.0,1139.5,0,0,545,555,0,208750.0,131000.0,3132.0,1361.5,14,0
320,10022500-01,2010,-4.192275452,0.429986218,3.9071428569999997,1.058637939,7,7,0,0,0,0,0,0,0,1,5,9,0,0,0,Brickyard Clayhole Lake,Lower Minnesota River,-93.59982271,44.79400718,14,14,1.5,1.642857143,A,Brickyard Clayhole Lake-1,101,1.951287129,3.61231357,0,0,134000,288900.0,960.0,3312.0,0,0,0,0,10,110000.0,178129.25,1684.0,18640.0,6,2
1388,82009400-01,2013,-1.954520896,0.48721633299999995,0.663846154,0.302972454,0,1,2,10,0,0,1,0,0,0,0,1,8,4,0,Colby Lake,Mississippi River - Twin Cities,-92.90834129,44.91007106,13,13,3.692307692,3.230769231,D,Colby Lake-1,846,0.832647754,4.2065268069999995,0,0,277100,163900.0,2026.0,948.0,0,0,734,774,0,279558.0,215250.0,,,0,0
1678,82030500-01,2014,-2.778737995,0.27208083899999996,1.27,0.47927976299999997,0,2,6,4,0,0,0,1,0,0,0,3,9,0,0,Jackson WMA,Lower St. Croix River,-92.84686699,45.05652899,12,12,3.166666667,2.75,C,Jackson WMA-1,228,1.2244736840000001,2.461769391,0,0,218450,45300.0,1089.0,681.0,0,0,170,184,0,171000.0,83575.0,,,0,0
359,13005600-01,2009,-3.2695608910000002,0.42166864299999995,0.51,0.089442719,0,0,0,4,6,0,0,1,0,0,0,8,2,0,0,Heims Lake,Lower St. Croix River,-92.99323808,45.31658516,10,10,4.6,2.2,C,Heims Lake-1,26,4.914615385,1.982320319,0,0,288100,51375.0,1442.0,1036.75,0,0,24,0,0,239900.0,172000.0,3138.5,600.25,2,0
1745,82051400-01,2012,-1.519273916,0.44879367,0.687642857,0.24776744899999997,1,3,1,6,2,0,1,0,0,0,0,4,8,2,0,Rest Area Pond,Lower St. Croix River,-92.81688162,44.95345401,13,14,3.384615385,2.857142857,D,Rest Area Pond-1,18,14.19555556,19.43505209,0,0,328100,961450.0,0.0,3736.75,0,0,4,6,0,1700000.0,1877750.0,,,0,0
1579,82013300-01,2007,-3.7717032560000003,0.310513962,2.307142857,0.794659371,12,2,0,0,0,0,0,0,1,0,6,8,0,0,0,Sunnybrook Lake,Lower St. Croix River,-92.91073482,45.05049226,14,14,1.142857143,1.571428571,B,Sunnybrook Lake-1,116,,,0,0,343200,378700.0,0.0,0.0,0,114,0,0,0,201000.0,170000.0,,,0,0
1124,82002300-01,2012,-3.169555484,0.6368639420000001,1.836363636,0.632886605,0,10,1,0,0,0,0,1,0,0,0,5,6,0,0,Lily Lake,Lower St. Croix River,-92.82307526,45.04910509,11,11,2.090909091,2.5454545459999998,C,Lily Lake-1,654,0.455718654,0.7793813190000001,0,0,171800,74300.0,1187.0,472.0,0,0,558,548,0,173500.0,129595.0,,,18,0
1194,82004200-01,2008,-1.30777497,0.395306669,0.304642857,0.19844457,0,0,0,13,1,1,0,0,0,0,0,0,2,12,0,Lynch Lake,Lower St. Croix River,-92.88395835,45.15170647,14,14,4.071428571,3.857142857,F,Lynch Lake-1,22,14.22863636,12.95310858,0,0,394400,161025.0,0.0,0.0,0,22,0,0,0,198000.0,180000.0,389800.0,163325.0,0,0
1126,82002300-01,2014,-3.8192892819999997,0.314697244,2.264285714,0.9739745240000001,0,12,2,0,0,0,0,0,0,1,0,13,1,0,0,Lily Lake,Lower St. Croix River,-92.82307526,45.04910509,14,14,2.142857143,2.0714285709999998,A,Lily Lake-1,648,0.46006172799999995,0.7874380790000001,0,0,207450,78675.0,1181.0,478.75,0,0,542,542,0,171700.0,129595.0,,,0,0
661,27005300-01,2004,-1.997327239,0.226604733,0.364285714,0.049724515999999996,0,0,0,13,0,1,0,0,0,0,10,4,0,0,0,Cobblecrest Lake,Mississippi River - Twin Cities,-93.39348337,44.95013,13,14,4.0,1.285714286,F,Cobblecrest Lake-1,459,,,0,0,188900,69500.0,0.0,0.0,0,0,408,0,0,116500.0,94200.0,2236.0,900.5,12,0
754,27011102-01,2009,-2.688142366,0.29407637600000003,1.075,0.337003603,0,0,0,8,0,0,1,0,0,0,0,0,3,4,1,Pike Lake,Mississippi River - Twin Cities,-93.41943368,45.06640871,8,8,4.0,3.75,D,Pike Lake-1,219,1.211278539,3.8130033689999996,0,0,213900,100600.0,884.0,1078.0,0,0,179,0,0,171000.0,117500.0,2487.0,1269.0,6,2
64,02058500-01,2011,-3.167682685,0.273998877,1.428571429,0.415187852,0,0,0,7,0,0,0,1,0,0,0,2,3,2,0,Lochness Lake,Mississippi River - Twin Cities,-93.15409272,45.17252825,7,7,4.0,3.0,C,Lochness Lake-1,30,10.95666667,13.08256364,0,0,263400,98200.0,1256.0,2529.0,0,0,20,0,0,425000.0,1193000.0,3765.0,1457.0,0,0
306,10021800-01,2007,,,,,0,0,0,0,0,0,1,0,0,0,0,0,0,0,0,Grace Lake,Lower Minnesota River,-93.60623072,44.82448386,0,0,,,D,Grace Lake-1,454,0.6148372089999999,2.5435044280000003,0,0,169200,117350.0,1039.0,648.75,0,0,181,0,0,158150.0,75000.0,1851.0,1140.0,24,0
1713,82036500-01,2010,-1.3443878180000002,0.356589239,0.381428571,0.17072673800000002,0,0,1,6,0,1,0,0,0,0,0,0,7,0,0,Capaul Pond,Lower St. Croix River,-92.94207606,45.0380528,7,7,3.857142857,3.0,F,Capaul Pond-1,14,11.01,12.52405071,0,0,306700,610000.0,1156.0,2400.0,2,0,10,8,2,200000.0,1295000.0,,,0,0
1601,82013700-01,2007,-2.9531325739999996,0.667825049,1.2748,0.48998449,2,13,1,4,0,0,0,2,0,0,0,5,12,3,0,Fish Lake,Mississippi River - Twin Cities,-92.97796745,45.12242547,20,20,2.35,2.9,C,Fish Lake-2,36,,,0,0,606750,363300.0,0.0,0.0,0,36,0,0,0,202775.0,283000.0,,,2,0
690,27007000-01,2010,-3.19554866,0.435448961,1.746153846,1.107260422,13,0,0,0,0,0,0,1,0,0,12,1,0,0,0,Mitchell Lake,Lower Minnesota River,-93.49817264,44.85899641,13,13,1.0,1.076923077,C,Mitchell Lake-1,1207,0.6925062240000001,1.7645868180000002,0,0,298500,292100.0,0.0,1024.0,0,0,1070,0,0,209900.0,174500.0,3860.0,3940.0,32,0
1397,82009700-01,2011,-2.604692404,0.49047936200000003,2.3,0.7245688370000001,0,4,0,6,0,0,0,1,0,0,0,5,5,0,0,La Lake,Mississippi River - Twin Cities,-92.97139840000001,44.88725237,10,10,3.2,2.5,C,La Lake-1,210,1.9533333330000002,5.891084117999999,0,0,177500,78475.0,1076.0,871.0,0,0,150,190,0,234505.0,124442.5,,,18,0
484,19003200-01,2011,-3.5608956739999997,0.6211741479999999,2.273333333,0.6931991059999999,10,3,3,1,0,0,0,1,0,1,8,8,1,0,0,Horseshoe Lake,Lower Minnesota River,-93.30264228,44.71796603,17,17,1.705882353,1.588235294,C,Horseshoe Lake-1,86,2.849302326,2.0502452019999997,0,0,264900,155300.0,2230.0,1427.25,0,0,76,0,0,143340.0,307250.0,3372.0,2152.0,0,0
1645,82015900-01,2007,-3.476721267,0.436068013,1.3142857140000002,0.6995681559999999,13,0,0,0,0,0,0,1,0,0,1,10,1,2,0,Forest Lake,Lower St. Croix River,-92.96654615,45.28220571,13,14,1.0,2.285714286,C,Forest Lake-1,2645,,,0,0,200900,289500.0,0.0,0.0,0,2576,0,0,0,160000.0,121500.0,,,33,0
620,27002802-01,2005,-1.884895751,0.23554559600000002,0.42,0.11822765199999999,0,0,0,10,0,1,0,0,0,0,0,2,6,2,0,Cornelia Lake,Lower Minnesota River,-93.33952406,44.88277422,10,10,4.0,3.0,F,Cornelia Lake-1,624,,,0,0,354800,173300.0,0.0,0.0,0,0,541,0,0,230000.0,216325.0,4160.5,1930.25,22,0
1087,82001700-01,2012,-3.269229043,0.193437236,1.219,,0,0,0,5,0,0,0,0,0,0,0,0,4,1,0,Carol Lake,Lower St. Croix River,-92.84101343,45.09783873,5,5,4.0,3.2,F,Carol Lake-1,20,21.174,10.61355657,0,0,398650,319600.0,1447.5,2841.0,4,0,16,12,0,340000.0,0.0,,,0,0
545,19009500-01,2004,-2.759549762,0.432442812,1.219214286,0.43417156799999995,0,0,0,14,0,0,0,1,0,0,0,6,4,4,0,Seidl Lake,Mississippi River - Twin Cities,-93.05329582,44.88348937,14,14,4.0,2.857142857,C,Seidl Lake-1,652,0.319949833,0.923976638,0,0,170700,219725.0,1552.5,2104.0,0,0,530,442,6,180000.0,114646.0,1671.0,2269.75,105,0
1559,82012600-01,2007,-3.428486412,0.42603087799999995,2.090071429,0.35575520200000005,1,7,3,3,0,0,0,1,0,0,0,10,3,1,0,Masterman Lake,Lower St. Croix River,-92.90354144,45.07866797,14,14,2.5714285709999998,2.357142857,C,Masterman Lake-1,71,,,0,0,416200,638700.0,0.0,0.0,0,65,0,0,0,250000.0,161010.0,,,0,0
1593,82013500-01,2008,-2.850148985,0.509726445,0.5375,0.20966242699999998,0,0,0,4,0,0,0,0,0,0,0,0,3,0,0,Echo Lake,Lower St. Croix River,-92.97449078,45.04335918,4,3,4.0,3.0,F,Echo Lake-1,410,1.07601467,5.259318435,0,0,533250,208800.0,0.0,0.0,0,410,0,0,0,375958.0,322597.0,533250.0,208800.0,2,0
1626,82015100-01,2010,-3.00564122,0.485523763,1.938571429,1.36485478,1,2,4,7,0,0,0,1,0,0,0,6,8,0,0,South School Section Lake,Lower St. Croix River,-92.90602156,45.14138345,14,14,3.214285714,2.5714285709999998,C,South School Section Lake-1,38,8.151578947,7.382192058999999,0,0,327800,171900.0,1632.0,758.0,6,0,34,30,0,201000.0,114812.5,,,0,0
1390,82009700-01,2004,-2.573453967,0.705619847,2.183333333,0.742181469,1,2,0,0,0,0,0,0,0,0,1,2,0,0,0,La Lake,Mississippi River - Twin Cities,-92.97139840000001,44.88725237,3,3,1.6666666669999999,1.6666666669999999,F,La Lake-1,211,2.266095238,6.659049005,0,0,0,105000.0,0.0,0.0,8,0,211,0,0,,,152.0,1970.0,0,7
1533,82012200-01,2010,-3.9454005789999997,0.136718914,3.375,0.9662150009999999,1,2,5,0,0,0,0,0,0,1,3,5,0,0,0,Pine Tree Lake,Mississippi River - Twin Cities,-92.95386928,45.10231359,8,8,2.5,1.625,A,Pine Tree Lake-1,172,6.157674419,12.4286604,4,4,476200,754000.0,2142.5,3111.0,8,0,124,114,0,439950.0,545000.0,,,2,0
836,27066100-01,2009,-3.55573247,0.598880314,,,0,0,0,0,7,0,0,1,0,0,0,0,0,0,7,South Oak Lake,Mississippi River - Twin Cities,-93.37042248,44.93426779,7,7,5.0,5.0,C,South Oak Lake-1,207,1.118019324,2.389520901,0,0,206600,58200.0,768.0,1152.0,0,0,132,0,0,152500.0,135000.0,2516.0,1276.75,12,0
1078,82001502-01,2010,-2.6574862759999998,0.5748232670000001,0.454166667,0.185200547,0,0,4,8,0,1,0,0,0,0,0,1,4,7,0,Loon Lake,Lower St. Croix River,-92.83720049,45.1141432,12,12,3.666666667,3.5,F,Loon Lake-1,42,11.16904762,12.15610011,0,0,468900,114025.0,1874.0,849.5,0,0,36,36,0,360000.0,444750.0,,,0,0
698,27007600-01,2011,-3.873542485,0.203421944,3.0,0.42426406899999997,0,1,1,0,0,0,0,0,0,0,0,1,1,0,0,Red Rock Lake,Lower Minnesota River,-93.47638386,44.84796469,2,2,2.5,2.5,F,Red Rock Lake-1,690,0.587609329,0.467219262,0,0,421800,282200.0,0.0,1516.0,0,0,606,0,0,325000.0,326468.0,5871.0,4122.5,14,0
1535,82012200-01,2012,-3.814089322,0.5522918689999999,2.981818182,0.8134103290000001,1,6,5,0,0,0,0,0,0,1,5,6,1,0,0,Pine Tree Lake,Mississippi River - Twin Cities,-92.95386928,45.10231359,12,12,2.333333333,1.6666666669999999,A,Pine Tree Lake-1,170,6.224352941,12.47256876,4,4,383400,679625.0,2005.0,3103.5,8,0,122,112,0,414195.5,545000.0,,,4,0
1249,82005204-01,2014,-4.371984425,0.530642683,3.668333333,1.0014701320000001,4,8,0,0,0,0,0,0,0,1,1,9,2,0,0,Big Marine Lake,Lower St. Croix River,-92.86574543,45.20886188,12,12,1.6666666669999999,2.083333333,A,Big Marine Lake-1,134,3.920597015,8.504909839,0,0,220000,350500.0,0.0,0.0,0,0,22,28,2,168000.0,280000.0,,,0,0
534,19008200-01,2012,-3.02323223,0.728808995,,,0,0,0,3,2,0,0,0,0,0,0,1,2,0,2,Lemay Lake,Lower Minnesota River,-93.15743903,44.87293228,5,5,4.4,3.6,F,Lemay Lake-1,96,2.1090625,3.185808029,0,0,199800,160000.0,1404.0,2049.75,0,0,55,55,0,231000.0,258000.0,2331.0,1243.25,0,0
90,10000200-02,2010,-2.563949857,,2.1,,1,0,0,0,0,0,0,0,0,0,0,1,0,0,0,Riley Lake,Lower Minnesota River,-93.52393956,44.83937512,1,1,1.0,2.0,F,Riley Lake-2,360,0.605805556,2.8361696710000004,0,0,259900,454325.0,1349.0,1937.0,0,0,29,0,0,305000.0,381467.5,5108.0,4192.0,16,8
897,62005800-01,2013,-3.0383684619999998,0.320245169,1.559090909,0.635931672,0,4,4,3,0,0,0,1,0,0,0,7,2,0,0,Little Johanna Lake,Mississippi River - Twin Cities,-93.17263308,45.03504895,11,9,2.9090909089999997,2.222222222,C,Little Johanna Lake-1,257,1.4024513619999999,5.783598157,0,0,258400,110900.0,1766.0,1118.0,0,0,211,221,18,227747.5,123000.0,,,12,0
1522,82012000-01,2010,-2.4605479480000003,0.415987647,1.0442857140000001,0.495343149,0,1,4,10,0,0,1,0,0,0,0,5,8,2,0,Benz Lake,Lower St. Croix River,-92.89111722,45.11128554,15,15,3.6,2.8,D,Benz Lake-1,48,9.027083333,4.61993044,0,0,450500,242375.0,1798.0,1147.5,0,0,42,36,2,207000.0,255000.0,,,0,0
1301,82007200-01,2010,-2.8126356180000003,0.28703459800000003,1.1,0.496655481,7,6,1,0,0,0,0,1,0,0,6,5,3,0,0,White Rock Lake,Mississippi River - Twin Cities,-92.89308991,45.22389054,14,14,1.571428571,1.785714286,C,White Rock Lake-1,58,8.771724138,12.03674464,0,0,258100,173075.0,1256.0,1624.5,2,0,40,36,2,221418.5,546500.0,,,0,0
1560,82012600-01,2008,-3.142647329,0.425952402,2.133714286,0.338228514,1,7,6,0,0,0,0,1,0,0,2,9,3,0,0,Masterman Lake,Lower St. Croix River,-92.90354144,45.07866797,14,14,2.357142857,2.0714285709999998,C,Masterman Lake-1,71,7.177681159,4.528366523,0,0,421700,445400.0,0.0,0.0,0,71,0,0,0,300000.0,350340.0,390400.0,505700.0,0,0
609,19045600-01,2010,-3.185628213,0.636292077,1.115384615,0.36764147799999997,0,10,2,1,0,0,0,1,0,0,0,10,3,0,0,Cobblestone Lake,Mississippi River - Lake Pepin,-93.16324515,44.72101119,13,13,2.307692308,2.230769231,C,Cobblestone Lake-1,564,0.308771552,1.893792406,0,0,321600,261400.0,2478.0,1641.75,0,2,391,430,0,415719.5,220527.25,4206.0,3666.75,26,0
1199,82004200-01,2013,-2.4662118719999997,0.583582288,0.74173913,0.435927978,0,3,7,14,1,1,0,1,0,0,0,6,11,8,0,Lynch Lake,Lower St. Croix River,-92.88395835,45.15170647,25,25,3.52,3.08,F,Lynch Lake-1,24,14.50583333,12.81343619,0,0,315000,185125.0,1684.5,1222.25,2,0,20,20,0,198000.0,144750.0,,,0,0
39,02003400-01,2008,-2.425761723,0.571000201,0.607142857,0.220014985,2,3,2,1,0,0,1,0,0,0,0,5,3,5,1,Martin Lake,Lower St. Croix River,-93.0833978,45.38581642,8,14,2.25,3.142857143,D,Martin Lake-1,847,0.779527745,1.894095844,0,0,177100,230800.0,812.0,1217.0,0,0,456,0,0,152000.0,115725.0,1515.0,2019.0,12,0
559,19019800-01,2011,-1.912882494,0.8686043529999999,0.7214285709999999,0.388643739,3,0,0,0,0,1,0,0,0,0,4,0,2,2,1,Scout Lake,Lower Minnesota River,-93.21534043,44.773007,3,9,1.0,2.555555556,F,Scout Lake-1,387,0.517131783,1.3549251130000002,0,0,298200,237000.0,2604.0,2294.0,0,0,341,0,0,222000.0,217700.0,4007.0,3365.0,6,0
1108,82002000-01,2006,-2.7645013730000003,0.467274815,2.166357143,0.531953382,0,3,4,5,2,0,0,1,0,0,1,4,7,0,2,McKusick Lake,Lower St. Croix River,-92.8257844,45.060821000000004,14,14,3.428571429,2.857142857,C,McKusick Lake-1,1075,0.54792976,2.854368543,0,0,218500,115900.0,1264.0,570.0,0,0,902,0,0,157258.0,119000.0,2310.0,1257.0,20,0
1572,82013200-01,2011,-2.7836546039999996,0.468896518,2.9814285710000004,1.7887161580000002,0,6,4,4,0,0,0,0,1,0,0,9,5,0,0,Woodpile Lake,Lower St. Croix River,-92.90332792,45.06868739,14,14,2.857142857,2.357142857,B,Woodpile Lake-1,28,9.843571428999999,8.622748215,0,0,400100,186900.0,1442.0,1070.0,2,0,24,20,2,30132.0,207927.25,,,0,0
800,27017901-01,2009,-4.516281458,0.724231405,4.2730769230000005,0.8457283309999999,13,0,0,0,0,0,0,0,0,1,10,3,0,0,0,Little Long Lake,South Fork Crow River,-93.7082121,44.94773927,13,13,1.0,1.230769231,A,Little Long Lake-1,21,15.16857143,8.380852752000001,0,0,100000,412000.0,0.0,1544.5,0,0,4,0,0,168000.0,43908.0,4078.0,1682.0,0,0
902,62007100-01,2008,-2.8400521039999997,0.345199992,1.834615385,0.656323287,2,0,0,11,0,0,0,1,0,0,2,9,2,0,0,Valentine Lake,Mississippi River - Twin Cities,-93.16496542,45.05824113,13,13,3.5384615389999996,2.0,C,Valentine Lake-1,286,,,0,0,320900,121600.0,2054.0,1247.75,0,0,243,255,0,228000.0,138009.25,3498.0,1404.0,2,0
993,70009500-01,2006,-2.7873094089999997,0.38520867700000005,0.954545455,0.441279132,2,5,4,0,0,0,1,0,0,0,0,4,5,1,0,O'Dowd Lake,Lower Minnesota River,-93.51540390000001,44.744893100000006,11,10,2.1818181819999998,2.7,D,O'Dowd Lake-1,326,2.192423313,6.067586362,0,0,336500,473400.0,1357.0,1800.0,0,0,191,0,0,228900.0,362312.5,,,0,0
1053,82001100-01,2009,-1.2780682859999999,0.874952563,0.37,0.312443595,0,0,1,6,0,1,0,0,0,0,0,1,3,3,0,Bay Pond,Lower St. Croix River,-92.83273741,44.99498587,7,7,3.857142857,3.285714286,F,Bay Pond-1,131,2.516307692,4.821475077,0,0,121300,210700.0,0.0,1497.0,0,130,0,0,0,247450.0,708125.0,72400.0,237125.0,0,0
926,70002100-01,2007,-2.9418022230000003,0.39840230299999996,1.414285714,0.589995965,0,0,3,4,0,0,0,1,0,0,2,4,1,0,0,Markley Lake,Lower Minnesota River,-93.39856519,44.7102066,7,7,3.571428571,1.857142857,C,Markley Lake-1,226,2.084823009,6.706564427000001,0,0,301100,110000.0,1288.0,384.0,0,0,183,0,0,204900.0,93496.0,,,0,0
585,19044600-01,2006,-3.811011404,0.234108333,3.075,0.754531763,12,0,0,0,0,0,0,0,0,1,12,0,0,0,0,Lac Lavon Lake,Lower Minnesota River,-93.24520003,44.72061708,12,12,1.0,1.0,A,Lac Lavon Lake-1,792,0.61021767,3.32116906,0,0,287300,124500.0,2273.0,1107.0,0,0,715,767,0,196500.0,113000.0,3039.0,1502.0,20,0
630,27003501-01,2005,-3.049288831,0.259774519,1.463636364,0.313919503,11,0,0,0,0,0,0,1,0,0,8,3,0,0,0,Sweeney Lake,Mississippi River - Twin Cities,-93.34160616,44.99052075,11,11,1.0,1.2727272729999999,C,Sweeney Lake-1,310,,,0,0,279000,154000.0,0.0,0.0,0,0,268,0,0,155500.0,147575.0,3781.0,2280.25,6,0
211,10005900-01,2008,-3.32226176,0.575085081,2.8775,1.045853341,5,12,3,0,0,0,0,1,0,0,2,16,2,0,0,Waconia Lake,Lower Minnesota River,-93.77585994,44.87281942,20,20,1.9,2.0,C,Waconia Lake-1,145,3.818129496,10.78144565,0,0,289400,397150.0,576.0,2002.0,2,0,40,0,0,349900.0,630500.0,1656.0,3312.75,8,4
474,19003100-01,2010,-3.774630311,0.405332045,2.957142857,0.874171507,13,1,0,0,0,0,0,0,0,1,8,6,0,0,0,Orchard Lake,Lower Minnesota River,-93.31089353,44.7022537,14,14,1.071428571,1.428571429,A,Orchard Lake-1,285,0.7523188409999999,0.791357214,0,0,347100,306700.0,2307.0,3383.5,0,0,213,205,0,274132.5,185000.0,4505.0,3528.5,4,0
142,10001200-01,2009,,,,,0,0,0,0,0,0,0,0,1,0,0,0,0,0,0,Ann Lake,Lower Minnesota River,-93.55689623,44.87313144,0,0,,,B,Ann Lake-1,36,11.46444444,30.75178512,0,0,305700,72700.0,1688.0,820.0,2,0,14,0,0,191000.0,165000.0,3499.0,988.0,0,0
358,13005400-01,2014,-3.276737415,0.5770564539999999,1.972352941,0.54648341,1,11,3,2,0,0,0,1,0,0,3,13,1,0,0,Little Comfort Lake,Lower St. Croix River,-92.93695344,45.31351351,17,17,2.352941177,1.882352941,C,Little Comfort Lake-1,4,2.54,0.011547005,0,0,308550,4500.0,2447.5,55.0,0,0,4,4,0,31000.0,0.0,,,0,0
930,70002600-01,2007,-3.823010661,0.541830212,2.6615384619999998,1.503073774,6,6,1,0,0,0,0,0,1,0,2,5,5,1,0,Lower Prior Lake,Lower Minnesota River,-93.41536363,44.73480944,13,13,1.615384615,2.384615385,B,Lower Prior Lake-1,1263,0.56277118,2.322833722,0,0,262300,237000.0,1232.0,538.0,2,0,1102,0,0,221600.0,170000.0,,,0,0
1724,82036800-01,2014,-2.522785255,0.34791193,0.831,0.25549298800000003,1,1,0,8,0,0,1,0,0,0,1,2,2,5,0,Klawitter Pond,Lower St. Croix River,-92.90854993,45.03272598,10,10,3.5,3.1,D,Klawitter Pond-1,88,3.061590909,5.4180409329999994,0,0,403500,244350.0,1985.0,914.75,0,0,74,76,0,227500.0,356844.25,,,0,0
941,70005000-01,2008,-2.4723386659999997,0.511475456,0.8833333329999999,0.58749597,5,6,0,1,0,0,1,0,0,0,3,1,7,1,0,McMahon Lake,Lower Minnesota River,-93.41373865,44.63309631,12,12,1.75,2.5,D,McMahon Lake-1,57,5.087368421,5.532354035,0,0,326500,380850.0,1134.0,1511.0,9,0,33,0,0,280825.0,425125.0,,,2,0
475,19003100-01,2011,-3.6554891019999998,0.68894531,2.839285714,0.821391542,12,2,0,0,0,0,0,0,1,0,10,4,0,0,0,Orchard Lake,Lower Minnesota River,-93.31089353,44.7022537,14,14,1.142857143,1.285714286,B,Orchard Lake-1,276,0.72,0.6961620279999999,0,0,350500,261325.0,2342.0,2434.0,0,0,213,0,0,243508.0,187987.5,4789.0,3604.0,0,0
1177,82003400-01,2014,-4.057027884,0.382346443,4.205,0.791873498,0,6,4,1,0,0,0,0,0,1,1,10,0,0,0,East Boot Lake,Lower St. Croix River,-92.83095448,45.16485991,11,11,2.5454545459999998,1.9090909090000001,A,East Boot Lake-1,18,17.06111111,15.81793059,4,4,116400,523350.0,0.0,442.0,2,0,8,4,0,,,,,0,0
976,70007400-01,2011,-2.650959961,0.059737498,1.5666666669999998,0.16072751300000002,1,1,0,0,0,0,0,0,0,0,1,1,0,0,0,Dean Lake,Lower Minnesota River,-93.44465,44.77409896,2,2,1.5,1.5,F,Dean Lake-1,641,0.899467919,2.98536819,0,0,233800,176700.0,1046.0,720.0,2,0,457,0,0,283036.5,114212.0,,,0,0
449,19002900-01,2007,-3.1272922089999997,0.36134708,1.728571429,0.677584592,2,5,2,4,0,0,0,1,0,0,1,9,4,0,0,Lee Lake,Lower Minnesota River,-93.28746428,44.71229881,13,14,2.615384615,2.214285714,C,Lee Lake-1,266,1.099656489,2.799422265,0,0,238900,204375.0,1912.0,1472.0,0,0,197,199,0,227500.0,108950.0,2454.0,2551.5,10,0
564,19034800-01,2005,-3.097734253,0.38696788299999996,1.3,0.501663898,0,4,7,2,0,0,0,1,0,0,0,5,7,1,0,Valley Lake,Mississippi River - Lake Pepin,-93.20902364,44.71508954,13,13,2.8461538460000004,2.692307692,C,Valley Lake-1,225,0.626488889,1.776826181,0,0,198800,38300.0,1723.0,515.5,0,0,197,215,0,126000.0,110575.0,1668.0,356.5,13,0
1058,82001400-01,2004,-4.427777804,0.426454171,5.987142857,1.031000624,14,0,0,0,0,0,0,0,0,1,11,3,0,0,0,Little Carnelian Lake,Lower St. Croix River,-92.79566883,45.11864663,14,14,1.0,1.214285714,A,Little Carnelian Lake-1,59,10.25866667,27.76180702,0,0,596700,518200.0,0.0,0.0,0,0,59,0,0,417500.0,237700.0,5012.0,4164.0,0,0
130,10001000-01,2009,-3.553666932,0.18803973300000001,2.708333333,1.2609219809999999,12,1,0,0,0,0,0,0,1,0,3,3,7,0,0,Tamarack Lake,Mississippi River - Twin Cities,-93.63406464,44.87265849,13,13,1.076923077,2.307692308,B,Tamarack Lake-1,127,2.9918897639999997,14.23258572,0,0,547900,151000.0,2617.0,1282.0,1,0,48,0,0,536513.0,250900.0,7793.0,2216.0,4,0
647,27004201-01,2011,-3.259846786,0.969649157,2.33825,1.407875081,10,4,1,20,0,1,0,0,1,0,11,11,8,5,5,Twin Lake,Mississippi River - Twin Cities,-93.33618999,45.05077632,35,40,2.8857142860000002,2.55,F,Twin Lake-1,1251,0.339080735,0.556345966,0,0,151800,38500.0,1130.0,342.0,0,0,1092,0,0,118100.0,88560.0,2591.0,960.0,56,0
522,19008000-01,2008,-3.600337718,0.31979637,1.4111111109999999,0.301846171,5,2,1,1,0,0,0,0,1,0,3,4,2,0,0,Rogers Lake,Mississippi River - Twin Cities,-93.13915635,44.87116478,9,9,1.7777777780000001,1.888888889,B,Rogers Lake-1,307,1.9068384880000002,4.51426547,0,0,323300,314000.0,2062.0,2732.0,0,0,211,197,6,225000.0,197500.0,2973.5,1597.0,1,0
1619,82014800-01,2013,-3.098486757,0.44370811200000004,2.08,0.328694387,0,3,7,3,0,0,0,1,0,0,0,5,8,0,0,Plaisted Lake,Lower St. Croix River,-92.91253316,45.15178288,13,13,3.0,2.615384615,C,Plaisted Lake-1,20,17.847,15.85727265,0,0,182350,270500.0,736.0,2030.0,0,0,10,10,0,183908.0,0.0,,,0,0
322,10022500-01,2012,-3.9090149210000003,0.46570849,3.453846154,1.145182216,5,4,5,0,0,0,0,0,0,1,3,5,6,0,0,Brickyard Clayhole Lake,Lower Minnesota River,-93.59982271,44.79400718,14,14,2.0,2.214285714,A,Brickyard Clayhole Lake-1,102,1.88,3.489323461,0,0,121550,265975.0,1008.0,2400.0,2,0,34,0,10,158000.0,313811.0,1596.0,12396.0,8,4
156,10001400-01,2009,-1.316754037,0.37542103200000004,0.28928571399999997,0.13035243900000001,0,0,2,8,4,1,0,0,0,0,0,0,4,9,1,Hazeltine Lake,Lower Minnesota River,-93.58762476,44.83768723,14,14,4.1428571430000005,3.785714286,F,Hazeltine Lake-1,231,2.614185022,12.51240615,0,0,416800,759300.0,1600.0,5256.0,0,0,46,0,8,315000.0,470012.5,6621.0,29789.0,3,0
1131,82002500-01,2008,-1.9540420280000002,0.241194815,0.7185,0.24231376699999999,0,0,0,14,0,0,1,0,0,0,0,0,9,3,1,Louise Lake,Lower St. Croix River,-92.84729796,45.12194563,14,13,4.0,3.384615385,D,Louise Lake-1,29,16.94259259,19.40005385,0,0,423200,584400.0,0.0,0.0,2,29,0,0,0,155000.0,171950.0,423200.0,584400.0,0,0
123,10000900-02,2013,-4.077480394,0.271455675,2.37,1.188883697,8,2,0,0,0,0,0,0,1,0,2,4,4,0,0,Minnewashta Lake,Mississippi River - Twin Cities,-93.61318955,44.87105254,10,10,1.2,2.2,B,Minnewashta Lake-1,227,1.203788546,5.483102176,0,0,492100,346000.0,1965.0,1288.0,0,0,180,0,0,430000.0,384775.0,7604.0,5580.0,16,4
